{"iso_31662":"AR-U","provincia":"Chubut","localidades":[{"id":7440,"nombre":"28 DE JULIO","partido":"GAIMAN","municipio":"28 DE JULIO","cp":9107,"latitud":"-43.3809770","longitud":"-65.8386880"},{"id":7592,"nombre":"AGUADA DE LAS TEJAS","partido":"TELSEN","municipio":null,"cp":9121,"latitud":null,"longitud":null},{"id":7442,"nombre":"AGUADA DEL PITO","partido":"GASTRE","municipio":null,"cp":9121,"latitud":null,"longitud":null},{"id":7512,"nombre":"ALDEA APELEG","partido":"RIO SENGUER","municipio":"ALDEA APELEG","cp":9033,"latitud":"-44.7052520","longitud":"-70.8460010"},{"id":7513,"nombre":"ALDEA BELEIRO","partido":"RIO SENGUER","municipio":"ALDEA BELEIRO","cp":9037,"latitud":"-45.5614640","longitud":"-71.5181730"},{"id":7391,"nombre":"ALDEA ESCOLAR","partido":"FUTALEUFU","municipio":null,"cp":9203,"latitud":"-43.1198188","longitud":"-71.5588967"},{"id":7477,"nombre":"ALTO DE LAS PLUMAS","partido":"MARTIRES","municipio":null,"cp":9101,"latitud":"-43.6901741","longitud":"-67.1943817"},{"id":7514,"nombre":"ALTO RIO MAYO","partido":"RIO SENGUER","municipio":null,"cp":9037,"latitud":"-45.6862822","longitud":"-70.2606285"},{"id":7562,"nombre":"ALTO RIO PICO","partido":"TEHUELCHES","municipio":null,"cp":9223,"latitud":null,"longitud":null},{"id":7515,"nombre":"ALTO RIO SENGUER","partido":"RIO SENGUER","municipio":"ALTO RIO SENGUER","cp":9033,"latitud":"-45.0422243","longitud":"-70.8261417"},{"id":7419,"nombre":"ANGOSTURA","partido":"GAIMAN","municipio":null,"cp":9105,"latitud":null,"longitud":null},{"id":7420,"nombre":"ANGOSTURA SEGUNDA","partido":"GAIMAN","municipio":null,"cp":9105,"latitud":null,"longitud":null},{"id":7563,"nombre":"ARENOSO","partido":"TEHUELCHES","municipio":null,"cp":9225,"latitud":null,"longitud":null},{"id":7516,"nombre":"ARROYO CHALIA","partido":"RIO SENGUER","municipio":null,"cp":9035,"latitud":null,"longitud":null},{"id":27906,"nombre":"ARROYO EL MOSQUITO","partido":"CUSHAMEN","municipio":"CHOLILA","cp":9217,"latitud":null,"longitud":null},{"id":7517,"nombre":"ARROYO GATO","partido":"RIO SENGUER","municipio":null,"cp":9033,"latitud":null,"longitud":null},{"id":7483,"nombre":"ARROYO GUILAIA","partido":"PASO DE INDIOS","municipio":null,"cp":9207,"latitud":null,"longitud":null},{"id":7392,"nombre":"ARROYO PERCY","partido":"FUTALEUFU","municipio":null,"cp":9203,"latitud":null,"longitud":null},{"id":7393,"nombre":"ARROYO PESCADO","partido":"FUTALEUFU","municipio":null,"cp":9200,"latitud":null,"longitud":null},{"id":7543,"nombre":"ARROYO QUILLA","partido":"SARMIENTO","municipio":null,"cp":9020,"latitud":null,"longitud":null},{"id":7293,"nombre":"ARROYO VERDE","partido":"BIEDMA","municipio":null,"cp":8532,"latitud":"-42.0119887","longitud":"-65.3064501"},{"id":7352,"nombre":"BAHIA BUSTAMANTE","partido":"ESCALANTE","municipio":null,"cp":9111,"latitud":"-45.1143553","longitud":"-66.5349166"},{"id":7294,"nombre":"BAHIA CRACHER","partido":"BIEDMA","municipio":null,"cp":9120,"latitud":null,"longitud":null},{"id":7353,"nombre":"BAHIA SOLANO","partido":"ESCALANTE","municipio":null,"cp":9003,"latitud":null,"longitud":null},{"id":7593,"nombre":"BAJADA DEL DIABLO","partido":"TELSEN","municipio":null,"cp":9101,"latitud":null,"longitud":null},{"id":7443,"nombre":"BAJADA MORENO","partido":"GASTRE","municipio":null,"cp":9121,"latitud":null,"longitud":null},{"id":7296,"nombre":"BAJO BARTOLO","partido":"BIEDMA","municipio":null,"cp":9121,"latitud":null,"longitud":null},{"id":7502,"nombre":"BAJO DE LOS HUESOS","partido":"RAWSON","municipio":null,"cp":9103,"latitud":null,"longitud":null},{"id":7295,"nombre":"BAJO DEL GUALICHO","partido":"BIEDMA","municipio":null,"cp":9121,"latitud":"-42.3292580","longitud":"-65.6313477"},{"id":7518,"nombre":"BAJO LA CANCHA","partido":"RIO SENGUER","municipio":null,"cp":9031,"latitud":null,"longitud":null},{"id":7297,"nombre":"BAJO LAS DAMAJUANAS","partido":"BIEDMA","municipio":null,"cp":9121,"latitud":null,"longitud":null},{"id":21945,"nombre":"BARRIO ASTRA","partido":"ESCALANTE","municipio":"COMODORO RIVADAVIA","cp":9003,"latitud":null,"longitud":null},{"id":7503,"nombre":"BASE AERONAVAL ALTE IRIZAR","partido":"RAWSON","municipio":null,"cp":9101,"latitud":null,"longitud":null},{"id":7421,"nombre":"BETESTA","partido":"GAIMAN","municipio":null,"cp":9105,"latitud":null,"longitud":null},{"id":7452,"nombre":"BLANCUNTRE","partido":"GASTRE","municipio":null,"cp":9121,"latitud":"-42.5683892","longitud":"-68.9190916"},{"id":7422,"nombre":"BOCA DE LA ZANJA","partido":"GAIMAN","municipio":null,"cp":9107,"latitud":null,"longitud":null},{"id":7423,"nombre":"BOCA ZANJA SUD","partido":"GAIMAN","municipio":null,"cp":9107,"latitud":null,"longitud":null},{"id":27914,"nombre":"BOQUETE BOLSON","partido":"CUSHAMEN","municipio":"EL MAITEN","cp":9210,"latitud":null,"longitud":null},{"id":7424,"nombre":"BRYN BROWN","partido":"GAIMAN","municipio":null,"cp":9105,"latitud":null,"longitud":null},{"id":7425,"nombre":"BRYN GWYN","partido":"GAIMAN","municipio":null,"cp":9105,"latitud":"-43.3339557","longitud":"-65.4725911"},{"id":7544,"nombre":"BUEN PASTO","partido":"SARMIENTO","municipio":"BUEN PASTO","cp":9023,"latitud":"-45.0804230","longitud":"-69.4497780"},{"id":7323,"nombre":"BUENOS AIRES CHICO","partido":"CUSHAMEN","municipio":null,"cp":9210,"latitud":"-42.0687961","longitud":"-71.2158343"},{"id":7426,"nombre":"CABA\u00d1A DEL VALLE","partido":"GAIMAN","municipio":null,"cp":9105,"latitud":null,"longitud":null},{"id":7478,"nombre":"CABEZA DE BUEY","partido":"MARTIRES","municipio":null,"cp":9101,"latitud":null,"longitud":null},{"id":7380,"nombre":"CABO RASO","partido":"FLORENTINO AMEGHINO","municipio":null,"cp":9111,"latitud":"-44.3381691","longitud":"-65.2361755"},{"id":21869,"nombre":"CACHEL","partido":"FUTALEUFU","municipio":null,"cp":9201,"latitud":null,"longitud":null},{"id":7484,"nombre":"CAJON DE GINEBRA CHICO","partido":"PASO DE INDIOS","municipio":null,"cp":9201,"latitud":"-43.7488101","longitud":"-69.5112103"},{"id":7485,"nombre":"CAJON DE GINEBRA GRANDE","partido":"PASO DE INDIOS","municipio":null,"cp":9201,"latitud":"-43.7689819","longitud":"-69.4433823"},{"id":21952,"nombre":"CALETA CORDOVA","partido":"ESCALANTE","municipio":"COMODORO RIVADAVIA","cp":9003,"latitud":"-45.7327359","longitud":"-67.3813477"},{"id":7298,"nombre":"CALETA VALDEZ","partido":"BIEDMA","municipio":null,"cp":9121,"latitud":null,"longitud":null},{"id":7381,"nombre":"CAMARONES","partido":"FLORENTINO AMEGHINO","municipio":"CAMARONES","cp":9111,"latitud":"-44.7978821","longitud":"-65.7051468"},{"id":7427,"nombre":"CAMPAMENTO VILLEGAS","partido":"GAIMAN","municipio":null,"cp":9107,"latitud":"-43.4835320","longitud":"-66.1457901"},{"id":7486,"nombre":"CA\u00d1ADA BAGUAL","partido":"PASO DE INDIOS","municipio":null,"cp":9207,"latitud":null,"longitud":null},{"id":7594,"nombre":"CA\u00d1ADON BAGUAL","partido":"TELSEN","municipio":null,"cp":9121,"latitud":null,"longitud":null},{"id":7595,"nombre":"CA\u00d1ADON BLANCO","partido":"TELSEN","municipio":null,"cp":9121,"latitud":null,"longitud":null},{"id":7324,"nombre":"CA\u00d1ADON CALIENTE","partido":"CUSHAMEN","municipio":null,"cp":9213,"latitud":null,"longitud":null},{"id":7545,"nombre":"CA\u00d1ADON CARRIL","partido":"SARMIENTO","municipio":null,"cp":9020,"latitud":null,"longitud":null},{"id":7564,"nombre":"CA\u00d1ADON CHACAY","partido":"TEHUELCHES","municipio":null,"cp":9223,"latitud":null,"longitud":null},{"id":7596,"nombre":"CA\u00d1ADON CHILENO","partido":"TELSEN","municipio":null,"cp":9121,"latitud":null,"longitud":null},{"id":7356,"nombre":"CA\u00d1ADON FERRAIS","partido":"ESCALANTE","municipio":null,"cp":9001,"latitud":null,"longitud":null},{"id":7325,"nombre":"CA\u00d1ADON GRANDE","partido":"CUSHAMEN","municipio":null,"cp":9213,"latitud":null,"longitud":null},{"id":7565,"nombre":"CA\u00d1ADON LA MADERA","partido":"TEHUELCHES","municipio":null,"cp":9220,"latitud":null,"longitud":null},{"id":7357,"nombre":"CA\u00d1ADON LAGARTO","partido":"ESCALANTE","municipio":null,"cp":9009,"latitud":null,"longitud":null},{"id":7358,"nombre":"CA\u00d1ADON LOPEZ","partido":"ESCALANTE","municipio":null,"cp":9009,"latitud":null,"longitud":null},{"id":7359,"nombre":"CA\u00d1ADON PEDRO EX VALLE HERMOSO","partido":"ESCALANTE","municipio":null,"cp":9009,"latitud":null,"longitud":null},{"id":7546,"nombre":"CA\u00d1ADON TACHO","partido":"SARMIENTO","municipio":null,"cp":9020,"latitud":null,"longitud":null},{"id":7444,"nombre":"CARHUE NIYEO","partido":"GASTRE","municipio":null,"cp":9121,"latitud":"-42.8411255","longitud":"-68.4566116"},{"id":7455,"nombre":"CARRENLEUFU","partido":"LANGUI\u00d1EO","municipio":"CARRENLEUFU","cp":9201,"latitud":"-43.5856890","longitud":"-71.7009020"},{"id":7504,"nombre":"CASA BLANCA","partido":"RAWSON","municipio":null,"cp":9103,"latitud":null,"longitud":null},{"id":7566,"nombre":"CASA BLANCA","partido":"TEHUELCHES","municipio":null,"cp":9220,"latitud":null,"longitud":null},{"id":7597,"nombre":"CATAYCO","partido":"TELSEN","municipio":null,"cp":9120,"latitud":null,"longitud":null},{"id":7394,"nombre":"CERRO CENTINELA","partido":"FUTALEUFU","municipio":"CERRO CENTINELA","cp":9203,"latitud":"-42.7166670","longitud":"-70.5166670"},{"id":7487,"nombre":"CERRO CONDOR","partido":"PASO DE INDIOS","municipio":null,"cp":9207,"latitud":"-43.4233199","longitud":"-69.1640923"},{"id":7350,"nombre":"CERRO FOFOCAHUEL","partido":"CUSHAMEN","municipio":null,"cp":9213,"latitud":null,"longitud":null},{"id":7488,"nombre":"CERRO LONCO TRAPIAL","partido":"PASO DE INDIOS","municipio":null,"cp":9201,"latitud":null,"longitud":null},{"id":7395,"nombre":"CERRO MALLACO","partido":"FUTALEUFU","municipio":null,"cp":9200,"latitud":null,"longitud":null},{"id":7567,"nombre":"CERRO NEGRO","partido":"TEHUELCHES","municipio":null,"cp":9223,"latitud":null,"longitud":null},{"id":7598,"nombre":"CERRO PICHALAO","partido":"TELSEN","municipio":null,"cp":9120,"latitud":null,"longitud":null},{"id":7326,"nombre":"CERRO RADAL","partido":"CUSHAMEN","municipio":null,"cp":8430,"latitud":"-42.0392736","longitud":"-71.5655162"},{"id":7445,"nombre":"CERRO SANTA ANA","partido":"GASTRE","municipio":null,"cp":9100,"latitud":null,"longitud":null},{"id":7599,"nombre":"CHACAY ESTE","partido":"TELSEN","municipio":null,"cp":9121,"latitud":"-42.7702408","longitud":"-67.6660843"},{"id":7600,"nombre":"CHACAY OESTE","partido":"TELSEN","municipio":null,"cp":9121,"latitud":"-42.6794430","longitud":"-68.0608830"},{"id":7396,"nombre":"CHACRA DE AUSTIN","partido":"FUTALEUFU","municipio":null,"cp":9200,"latitud":null,"longitud":null},{"id":7505,"nombre":"CHARQUE CHICO","partido":"RAWSON","municipio":null,"cp":9103,"latitud":null,"longitud":null},{"id":7601,"nombre":"CHASICO","partido":"TELSEN","municipio":null,"cp":9121,"latitud":"-42.8222351","longitud":"-66.8040695"},{"id":7327,"nombre":"CHOLILA","partido":"CUSHAMEN","municipio":"CHOLILA","cp":9217,"latitud":"-42.5115433","longitud":"-71.4286423"},{"id":7456,"nombre":"COLAN CONHUE","partido":"LANGUI\u00d1EO","municipio":"COLAN CONHUE","cp":9201,"latitud":"-43.2425980","longitud":"-69.9302180"},{"id":7446,"nombre":"COLELACHE","partido":"GASTRE","municipio":null,"cp":9121,"latitud":"-42.5763626","longitud":"-69.0993576"},{"id":7547,"nombre":"COLHUE HUAPI","partido":"SARMIENTO","municipio":null,"cp":9021,"latitud":null,"longitud":null},{"id":7397,"nombre":"COLONIA 16 DE OCTUBRE","partido":"FUTALEUFU","municipio":null,"cp":9200,"latitud":"-43.1909254","longitud":"-71.3465964"},{"id":7328,"nombre":"COLONIA CUSHAMEN","partido":"CUSHAMEN","municipio":null,"cp":9213,"latitud":null,"longitud":null},{"id":7457,"nombre":"COLONIA EPULEF","partido":"LANGUI\u00d1EO","municipio":"ALDEA EPULEF","cp":9201,"latitud":"-43.2341170","longitud":"-69.7112940"},{"id":7548,"nombre":"COLONIA GERMANIA","partido":"SARMIENTO","municipio":null,"cp":9020,"latitud":null,"longitud":null},{"id":7362,"nombre":"COMODORO RIVADAVIA","partido":"ESCALANTE","municipio":"COMODORO RIVADAVIA","cp":9000,"latitud":"-45.8786616","longitud":"-67.5287231"},{"id":7398,"nombre":"CORCOVADO","partido":"FUTALEUFU","municipio":"CORCOVADO","cp":9201,"latitud":"-43.5385989","longitud":"-71.4617930"},{"id":7568,"nombre":"CORRALITOS","partido":"TEHUELCHES","municipio":null,"cp":9220,"latitud":null,"longitud":null},{"id":7329,"nombre":"COSTA CHUBUT","partido":"CUSHAMEN","municipio":null,"cp":9210,"latitud":null,"longitud":null},{"id":7330,"nombre":"COSTA DEL LEPA","partido":"CUSHAMEN","municipio":null,"cp":9201,"latitud":null,"longitud":null},{"id":7549,"nombre":"COSTA RIO CHICO","partido":"SARMIENTO","municipio":null,"cp":9020,"latitud":null,"longitud":null},{"id":7331,"nombre":"CUSHAMEN","partido":"CUSHAMEN","municipio":"CUSHAMEN","cp":9211,"latitud":"-42.1766611","longitud":"-70.6626188"},{"id":7428,"nombre":"DIQUE FLORENTINO AMEGHINO","partido":"GAIMAN","municipio":"DIQUE FLORENTINO AMEGHINO","cp":9101,"latitud":"-43.7032850","longitud":"-66.4794000"},{"id":7520,"nombre":"DOCTOR RICARDO ROJAS","partido":"RIO SENGUER","municipio":"DOCTOR RICARDO ROJAS","cp":9035,"latitud":"-45.5772209","longitud":"-71.0359116"},{"id":7429,"nombre":"DOLAVON","partido":"GAIMAN","municipio":"DOLAVON","cp":9107,"latitud":"-43.3075294","longitud":"-65.7052460"},{"id":7382,"nombre":"DOS POZOS","partido":"FLORENTINO AMEGHINO","municipio":null,"cp":9100,"latitud":null,"longitud":null},{"id":7430,"nombre":"EBENECER","partido":"GAIMAN","municipio":null,"cp":9107,"latitud":null,"longitud":null},{"id":7602,"nombre":"EL ALAMO","partido":"TELSEN","municipio":null,"cp":9121,"latitud":null,"longitud":null},{"id":7431,"nombre":"EL ARGENTINO","partido":"GAIMAN","municipio":null,"cp":9105,"latitud":null,"longitud":null},{"id":7399,"nombre":"EL BOQUETE","partido":"FUTALEUFU","municipio":null,"cp":9210,"latitud":null,"longitud":null},{"id":7332,"nombre":"EL CAJON","partido":"CUSHAMEN","municipio":null,"cp":9217,"latitud":"-42.4678246","longitud":"-71.3573602"},{"id":7489,"nombre":"EL CALAFATE","partido":"PASO DE INDIOS","municipio":null,"cp":9201,"latitud":"-44.2108421","longitud":"-68.8236694"},{"id":7490,"nombre":"EL CANQUEL","partido":"PASO DE INDIOS","municipio":null,"cp":9207,"latitud":null,"longitud":null},{"id":7447,"nombre":"EL CHACAY","partido":"GASTRE","municipio":"GASTRE","cp":9121,"latitud":null,"longitud":null},{"id":20738,"nombre":"EL CHALET","partido":"PASO DE INDIOS","municipio":null,"cp":9207,"latitud":null,"longitud":null},{"id":7569,"nombre":"EL CHERQUE","partido":"TEHUELCHES","municipio":null,"cp":9223,"latitud":"-44.3695582","longitud":"-71.0304461"},{"id":7333,"nombre":"EL COIHUE","partido":"CUSHAMEN","municipio":null,"cp":9211,"latitud":"-42.1721992","longitud":"-71.3221917"},{"id":7521,"nombre":"EL COITE","partido":"RIO SENGUER","municipio":null,"cp":9033,"latitud":null,"longitud":null},{"id":27903,"nombre":"EL COLHUE","partido":"CUSHAMEN","municipio":"EPUYEN","cp":9211,"latitud":null,"longitud":null},{"id":7458,"nombre":"EL CRONOMETRO","partido":"LANGUI\u00d1EO","municipio":null,"cp":9201,"latitud":null,"longitud":null},{"id":7459,"nombre":"EL CUCHE","partido":"LANGUI\u00d1EO","municipio":null,"cp":9201,"latitud":null,"longitud":null},{"id":7300,"nombre":"EL DESEMPE\u00d1O","partido":"BIEDMA","municipio":null,"cp":9120,"latitud":null,"longitud":null},{"id":7448,"nombre":"EL ESCORIAL","partido":"GASTRE","municipio":null,"cp":9121,"latitud":"-43.0980700","longitud":"-68.5596033"},{"id":7334,"nombre":"EL HOYO","partido":"CUSHAMEN","municipio":"EL HOYO","cp":8431,"latitud":"-42.0679670","longitud":"-71.5206710"},{"id":7383,"nombre":"EL JAGUEL","partido":"FLORENTINO AMEGHINO","municipio":null,"cp":9007,"latitud":null,"longitud":null},{"id":7460,"nombre":"EL KAQUEL","partido":"LANGUI\u00d1EO","municipio":null,"cp":9201,"latitud":null,"longitud":null},{"id":7335,"nombre":"EL MAITEN","partido":"CUSHAMEN","municipio":"EL MAITEN","cp":9210,"latitud":"-42.0506020","longitud":"-71.1712265"},{"id":7336,"nombre":"EL MIRADOR","partido":"CUSHAMEN","municipio":null,"cp":9201,"latitud":"-42.4221344","longitud":"-69.9987869"},{"id":7479,"nombre":"EL MIRASOL","partido":"MARTIRES","municipio":null,"cp":9101,"latitud":"-43.2852933","longitud":"-67.7603114"},{"id":7461,"nombre":"EL MOLLE","partido":"LANGUI\u00d1EO","municipio":null,"cp":9220,"latitud":null,"longitud":null},{"id":7491,"nombre":"EL PAJARITO","partido":"PASO DE INDIOS","municipio":null,"cp":9201,"latitud":"-43.8032785","longitud":"-69.2843295"},{"id":7301,"nombre":"EL PASTIZAL","partido":"BIEDMA","municipio":null,"cp":9121,"latitud":null,"longitud":null},{"id":7302,"nombre":"EL PIQUILLIN","partido":"BIEDMA","municipio":null,"cp":9121,"latitud":null,"longitud":null},{"id":21854,"nombre":"EL PORTEZUELO","partido":"GASTRE","municipio":null,"cp":9201,"latitud":null,"longitud":null},{"id":7522,"nombre":"EL PORVENIR","partido":"RIO SENGUER","municipio":null,"cp":9227,"latitud":null,"longitud":null},{"id":7462,"nombre":"EL POYO","partido":"LANGUI\u00d1EO","municipio":null,"cp":9201,"latitud":null,"longitud":null},{"id":7303,"nombre":"EL QUILIMUAY","partido":"BIEDMA","municipio":null,"cp":9121,"latitud":null,"longitud":null},{"id":7304,"nombre":"EL RUANO","partido":"BIEDMA","municipio":null,"cp":9121,"latitud":null,"longitud":null},{"id":7305,"nombre":"EL SALITRAL","partido":"BIEDMA","municipio":null,"cp":9121,"latitud":null,"longitud":null},{"id":7570,"nombre":"EL SHAMAN","partido":"TEHUELCHES","municipio":null,"cp":9223,"latitud":null,"longitud":null},{"id":7492,"nombre":"EL SOMBRERO","partido":"PASO DE INDIOS","municipio":null,"cp":9207,"latitud":"-44.1482802","longitud":"-68.2491164"},{"id":27896,"nombre":"EL TREBOL","partido":"ESCALANTE","municipio":"COMODORO RIVADAVIA","cp":9000,"latitud":"-45.8306274","longitud":"-67.8723297"},{"id":7523,"nombre":"EL TRIANA","partido":"RIO SENGUER","municipio":null,"cp":9037,"latitud":null,"longitud":null},{"id":7571,"nombre":"EL TROPEZON","partido":"TEHUELCHES","municipio":null,"cp":9223,"latitud":null,"longitud":null},{"id":27795,"nombre":"EL TURBIO","partido":"CUSHAMEN","municipio":null,"cp":9210,"latitud":"-42.2528405","longitud":"-71.7003594"},{"id":7366,"nombre":"EMPALME A ASTRA","partido":"ESCALANTE","municipio":"COMODORO RIVADAVIA","cp":9003,"latitud":null,"longitud":null},{"id":7306,"nombre":"EMPALME PUERTO LOBOS","partido":"BIEDMA","municipio":null,"cp":8532,"latitud":null,"longitud":null},{"id":7550,"nombre":"ENRIQUE HERMITTE","partido":"SARMIENTO","municipio":null,"cp":9020,"latitud":"-45.7854122","longitud":"-68.7464838"},{"id":7337,"nombre":"EPUYEN","partido":"CUSHAMEN","municipio":"EPUYEN","cp":9211,"latitud":"-42.2329250","longitud":"-71.3695070"},{"id":7400,"nombre":"ESQUEL","partido":"FUTALEUFU","municipio":"ESQUEL","cp":9200,"latitud":"-42.9035912","longitud":"-71.3188553"},{"id":7603,"nombre":"ESTANCIA EL MORO","partido":"TELSEN","municipio":null,"cp":9121,"latitud":null,"longitud":null},{"id":7463,"nombre":"ESTANCIA LA MIMOSA","partido":"LANGUI\u00d1EO","municipio":null,"cp":9201,"latitud":null,"longitud":null},{"id":7586,"nombre":"ESTANCIA NUEVA LUBECKA","partido":"TEHUELCHES","municipio":null,"cp":9227,"latitud":null,"longitud":null},{"id":7464,"nombre":"ESTANCIA PAMPA CHICA","partido":"LANGUI\u00d1EO","municipio":null,"cp":9201,"latitud":null,"longitud":null},{"id":7524,"nombre":"FACUNDO","partido":"RIO SENGUER","municipio":"FACUNDO","cp":9031,"latitud":"-45.3192710","longitud":"-69.9721130"},{"id":7338,"nombre":"FITHEN VERIN","partido":"CUSHAMEN","municipio":null,"cp":9210,"latitud":null,"longitud":null},{"id":7339,"nombre":"FITIRHUIN","partido":"CUSHAMEN","municipio":null,"cp":9210,"latitud":null,"longitud":null},{"id":7384,"nombre":"FLORENTINO AMEGHINO","partido":"FLORENTINO AMEGHINO","municipio":null,"cp":9113,"latitud":"-43.8354569","longitud":"-65.8019523"},{"id":7351,"nombre":"FOFO CAHUEL","partido":"CUSHAMEN","municipio":null,"cp":9213,"latitud":"-42.3910620","longitud":"-70.5780784"},{"id":20598,"nombre":"FRONTERA DE RIO PICO","partido":"TEHUELCHES","municipio":"VIGLIONE","cp":9225,"latitud":"-44.1988557","longitud":"-71.6666682"},{"id":7401,"nombre":"FUTALEUFU","partido":"FUTALEUFU","municipio":null,"cp":9203,"latitud":null,"longitud":null},{"id":7432,"nombre":"GAIMAN","partido":"GAIMAN","municipio":"GAIMAN","cp":9105,"latitud":"-43.2891235","longitud":"-65.4938202"},{"id":7604,"nombre":"GAN GAN","partido":"TELSEN","municipio":"GAN GAN","cp":9121,"latitud":"-42.5232330","longitud":"-68.2828540"},{"id":7385,"nombre":"GARAYALDE","partido":"FLORENTINO AMEGHINO","municipio":null,"cp":9007,"latitud":"-44.6795784","longitud":"-66.6097365"},{"id":7449,"nombre":"GASTRE","partido":"GASTRE","municipio":"GASTRE","cp":9121,"latitud":"-42.2656200","longitud":"-69.2210980"},{"id":7433,"nombre":"GLASFRYN","partido":"GAIMAN","municipio":null,"cp":9105,"latitud":null,"longitud":null},{"id":7572,"nombre":"GOBERNADOR COSTA","partido":"TEHUELCHES","municipio":"GOBERNADOR COSTA","cp":9223,"latitud":"-44.0498695","longitud":"-70.6008530"},{"id":7340,"nombre":"GUALJAINA","partido":"CUSHAMEN","municipio":"GUALJAINA","cp":9201,"latitud":"-42.7240868","longitud":"-70.5338669"},{"id":7573,"nombre":"HITO 43","partido":"TEHUELCHES","municipio":null,"cp":9225,"latitud":null,"longitud":null},{"id":7525,"nombre":"HITO 45","partido":"RIO SENGUER","municipio":null,"cp":9039,"latitud":null,"longitud":null},{"id":7526,"nombre":"HITO 50","partido":"RIO SENGUER","municipio":null,"cp":9039,"latitud":null,"longitud":null},{"id":7367,"nombre":"HOLDICH","partido":"ESCALANTE","municipio":null,"cp":9009,"latitud":"-45.9587307","longitud":"-68.1971841"},{"id":7341,"nombre":"ING BRUNO J THOMAE","partido":"CUSHAMEN","municipio":null,"cp":9210,"latitud":null,"longitud":null},{"id":7574,"nombre":"JOSE DE SAN MARTIN","partido":"TEHUELCHES","municipio":"JOSE DE SAN MARTIN","cp":9220,"latitud":"-44.0494451","longitud":"-70.4720324"},{"id":22005,"nombre":"KILOMETRO 11","partido":"ESCALANTE","municipio":"COMODORO RIVADAVIA","cp":9000,"latitud":null,"longitud":null},{"id":7551,"nombre":"KILOMETRO 191","partido":"SARMIENTO","municipio":null,"cp":9020,"latitud":null,"longitud":null},{"id":7493,"nombre":"LA BOMBILLA","partido":"PASO DE INDIOS","municipio":null,"cp":9207,"latitud":null,"longitud":null},{"id":7527,"nombre":"LA CANCHA","partido":"RIO SENGUER","municipio":null,"cp":9039,"latitud":null,"longitud":null},{"id":26405,"nombre":"LA CANCHA","partido":"CUSHAMEN","municipio":null,"cp":9200,"latitud":null,"longitud":null},{"id":7342,"nombre":"LA CASTELLANA","partido":"CUSHAMEN","municipio":null,"cp":9007,"latitud":null,"longitud":null},{"id":21931,"nombre":"LA CASTELLANA","partido":"FLORENTINO AMEGHINO","municipio":null,"cp":9111,"latitud":null,"longitud":null},{"id":7307,"nombre":"LA CORONA","partido":"BIEDMA","municipio":null,"cp":9121,"latitud":null,"longitud":null},{"id":22104,"nombre":"LA LANCHA","partido":"CUSHAMEN","municipio":null,"cp":9200,"latitud":null,"longitud":null},{"id":7529,"nombre":"LA LAURITA","partido":"RIO SENGUER","municipio":null,"cp":9227,"latitud":null,"longitud":null},{"id":7530,"nombre":"LA NICOLASA","partido":"RIO SENGUER","municipio":null,"cp":9039,"latitud":null,"longitud":null},{"id":7531,"nombre":"LA PEPITA","partido":"RIO SENGUER","municipio":null,"cp":9033,"latitud":null,"longitud":null},{"id":7494,"nombre":"LA PRIMAVERA","partido":"PASO DE INDIOS","municipio":null,"cp":9201,"latitud":null,"longitud":null},{"id":7308,"nombre":"LA ROSILLA","partido":"BIEDMA","municipio":null,"cp":9121,"latitud":null,"longitud":null},{"id":7369,"nombre":"LA SALAMANCA","partido":"ESCALANTE","municipio":null,"cp":9007,"latitud":null,"longitud":null},{"id":7532,"nombre":"LA SIBERIA","partido":"RIO SENGUER","municipio":null,"cp":9039,"latitud":null,"longitud":null},{"id":7533,"nombre":"LAGO BLANCO","partido":"RIO SENGUER","municipio":"LAGO BLANCO","cp":9039,"latitud":"-45.9362984","longitud":"-71.2682724"},{"id":22112,"nombre":"LAGO CARLOS PELLEGRINI","partido":"CUSHAMEN","municipio":null,"cp":9217,"latitud":null,"longitud":null},{"id":7534,"nombre":"LAGO FONTANA","partido":"RIO SENGUER","municipio":null,"cp":9033,"latitud":"-44.9797630","longitud":"-71.3837967"},{"id":7343,"nombre":"LAGO LEZANA","partido":"CUSHAMEN","municipio":null,"cp":9217,"latitud":null,"longitud":null},{"id":7552,"nombre":"LAGO MUSTERS","partido":"SARMIENTO","municipio":null,"cp":9023,"latitud":"-45.5887500","longitud":"-69.2502500"},{"id":20601,"nombre":"LAGO PAZ","partido":"TEHUELCHES","municipio":null,"cp":9225,"latitud":null,"longitud":null},{"id":7344,"nombre":"LAGO PUELO","partido":"CUSHAMEN","municipio":"LAGO PUELO","cp":8431,"latitud":"-42.0655785","longitud":"-71.5953369"},{"id":7402,"nombre":"LAGO RIVADAVIA","partido":"FUTALEUFU","municipio":null,"cp":9217,"latitud":"-39.8063000","longitud":"-71.1958000"},{"id":7403,"nombre":"LAGO ROSARIO","partido":"FUTALEUFU","municipio":null,"cp":9203,"latitud":"-43.2500169","longitud":"-71.3512318"},{"id":7404,"nombre":"LAGO VERDE","partido":"FUTALEUFU","municipio":null,"cp":9225,"latitud":"-42.7253950","longitud":"-71.7416241"},{"id":7575,"nombre":"LAGO VINTTER","partido":"TEHUELCHES","municipio":null,"cp":9225,"latitud":null,"longitud":null},{"id":7576,"nombre":"LAGUNA BLANCA","partido":"TEHUELCHES","municipio":null,"cp":9220,"latitud":null,"longitud":null},{"id":20582,"nombre":"LAGUNA DE VACAS","partido":"TELSEN","municipio":null,"cp":9121,"latitud":null,"longitud":null},{"id":7553,"nombre":"LAGUNA DEL MATE","partido":"SARMIENTO","municipio":null,"cp":9020,"latitud":null,"longitud":null},{"id":7605,"nombre":"LAGUNA FRIA","partido":"TELSEN","municipio":null,"cp":9121,"latitud":null,"longitud":null},{"id":7480,"nombre":"LAGUNA GRANDE","partido":"MARTIRES","municipio":null,"cp":9107,"latitud":null,"longitud":null},{"id":7554,"nombre":"LAGUNA PALACIO","partido":"SARMIENTO","municipio":null,"cp":9020,"latitud":null,"longitud":null},{"id":20768,"nombre":"LAGUNA RINCON DEL MORO","partido":"PASO DE INDIOS","municipio":null,"cp":9207,"latitud":null,"longitud":null},{"id":7405,"nombre":"LAGUNA TERRAPLEN","partido":"FUTALEUFU","municipio":null,"cp":9200,"latitud":"-42.9920844","longitud":"-71.4969313"},{"id":7578,"nombre":"LAGUNA VERDE","partido":"TEHUELCHES","municipio":null,"cp":9220,"latitud":null,"longitud":null},{"id":7450,"nombre":"LAGUNITA SALADA","partido":"GASTRE","municipio":"LAGUNITA SALADA","cp":9121,"latitud":"-42.7167790","longitud":"-69.1884720"},{"id":7465,"nombre":"LANGUI\u00d1EO","partido":"LANGUI\u00d1EO","municipio":null,"cp":9201,"latitud":null,"longitud":null},{"id":7309,"nombre":"LARRALDE","partido":"BIEDMA","municipio":null,"cp":9121,"latitud":null,"longitud":null},{"id":7481,"nombre":"LAS CHAPAS","partido":"MARTIRES","municipio":null,"cp":9107,"latitud":"-43.6076885","longitud":"-66.5321415"},{"id":7495,"nombre":"LAS CORTADERAS","partido":"PASO DE INDIOS","municipio":null,"cp":9207,"latitud":null,"longitud":null},{"id":7345,"nombre":"LAS GOLONDRINAS","partido":"CUSHAMEN","municipio":null,"cp":8430,"latitud":"-42.0150888","longitud":"-71.5331782"},{"id":7496,"nombre":"LAS HORQUETAS","partido":"PASO DE INDIOS","municipio":null,"cp":9207,"latitud":null,"longitud":null},{"id":7579,"nombre":"LAS MULAS","partido":"TEHUELCHES","municipio":null,"cp":9223,"latitud":null,"longitud":null},{"id":7482,"nombre":"LAS PLUMAS","partido":"MARTIRES","municipio":"LAS PLUMAS","cp":9101,"latitud":"-43.7223980","longitud":"-67.2869960"},{"id":7555,"nombre":"LAS PULGAS","partido":"SARMIENTO","municipio":null,"cp":9020,"latitud":null,"longitud":null},{"id":7466,"nombre":"LAS SALINAS","partido":"LANGUI\u00d1EO","municipio":null,"cp":9201,"latitud":null,"longitud":null},{"id":7406,"nombre":"LEGUA 24","partido":"FUTALEUFU","municipio":null,"cp":9203,"latitud":null,"longitud":null},{"id":7346,"nombre":"LELEQUE","partido":"CUSHAMEN","municipio":null,"cp":9213,"latitud":"-42.4288626","longitud":"-71.0683952"},{"id":7581,"nombre":"LENZANILLEO","partido":"TEHUELCHES","municipio":null,"cp":9223,"latitud":null,"longitud":null},{"id":7434,"nombre":"LOMA REDONDA","partido":"GAIMAN","municipio":null,"cp":9105,"latitud":null,"longitud":null},{"id":7310,"nombre":"LORETO","partido":"BIEDMA","municipio":null,"cp":9121,"latitud":null,"longitud":null},{"id":7497,"nombre":"LOS ALTARES","partido":"PASO DE INDIOS","municipio":"LOS ALTARES","cp":9207,"latitud":"-43.8711930","longitud":"-68.4301170"},{"id":7407,"nombre":"LOS CIPRESES","partido":"FUTALEUFU","municipio":null,"cp":9203,"latitud":"-43.1847146","longitud":"-71.6413919"},{"id":7582,"nombre":"LOS CORRALITOS","partido":"TEHUELCHES","municipio":null,"cp":9223,"latitud":null,"longitud":null},{"id":7498,"nombre":"LOS MANANTIALES","partido":"PASO DE INDIOS","municipio":null,"cp":9207,"latitud":null,"longitud":null},{"id":7535,"nombre":"LOS TAMARISCOS","partido":"RIO SENGUER","municipio":null,"cp":9031,"latitud":"-45.0285950","longitud":"-70.0771637"},{"id":7435,"nombre":"MAESTEG","partido":"GAIMAN","municipio":null,"cp":9105,"latitud":null,"longitud":null},{"id":7386,"nombre":"MALASPINA","partido":"FLORENTINO AMEGHINO","municipio":null,"cp":9007,"latitud":"-44.9273977","longitud":"-66.9213837"},{"id":7467,"nombre":"MALLIN BLANCO","partido":"LANGUI\u00d1EO","municipio":null,"cp":9201,"latitud":null,"longitud":null},{"id":7606,"nombre":"MALLIN GRANDE","partido":"TELSEN","municipio":null,"cp":9121,"latitud":"-42.3723373","longitud":"-67.5204468"},{"id":7408,"nombre":"MALLIN GRANDE CORCOVADO","partido":"FUTALEUFU","municipio":null,"cp":9121,"latitud":null,"longitud":null},{"id":7556,"nombre":"MANANTIAL GRANDE","partido":"SARMIENTO","municipio":null,"cp":9020,"latitud":null,"longitud":null},{"id":27897,"nombre":"MANANTIALES BEHR","partido":"ESCALANTE","municipio":"COMODORO RIVADAVIA","cp":9000,"latitud":"-45.6824760","longitud":"-67.6959229"},{"id":7583,"nombre":"MATA GRANDE","partido":"TEHUELCHES","municipio":null,"cp":9220,"latitud":null,"longitud":null},{"id":7409,"nombre":"MATUCANA","partido":"FUTALEUFU","municipio":null,"cp":9200,"latitud":null,"longitud":null},{"id":7410,"nombre":"MAYOCO","partido":"FUTALEUFU","municipio":null,"cp":9200,"latitud":null,"longitud":null},{"id":7311,"nombre":"MEDANOS","partido":"BIEDMA","municipio":null,"cp":9121,"latitud":null,"longitud":null},{"id":7411,"nombre":"NAHUEL PAN ESTACION FCGR","partido":"FUTALEUFU","municipio":null,"cp":9200,"latitud":"-42.9577011","longitud":"-71.1760067"},{"id":7584,"nombre":"NIRIGUAO","partido":"TEHUELCHES","municipio":null,"cp":9223,"latitud":null,"longitud":null},{"id":7585,"nombre":"NIRIGUCE PAMPA","partido":"TEHUELCHES","municipio":null,"cp":9223,"latitud":null,"longitud":null},{"id":7347,"nombre":"\u00d1ORQUINCO SUD","partido":"CUSHAMEN","municipio":null,"cp":8415,"latitud":null,"longitud":null},{"id":7607,"nombre":"PAINALUF","partido":"TELSEN","municipio":null,"cp":9121,"latitud":null,"longitud":null},{"id":7468,"nombre":"PAMPA DE AGNIA","partido":"LANGUI\u00d1EO","municipio":null,"cp":9201,"latitud":"-43.7487170","longitud":"-69.6516398"},{"id":7370,"nombre":"PAMPA DEL CASTILLO","partido":"ESCALANTE","municipio":null,"cp":9000,"latitud":"-45.7864999","longitud":"-68.0550693"},{"id":7371,"nombre":"PAMPA PELADA","partido":"ESCALANTE","municipio":null,"cp":9007,"latitud":null,"longitud":null},{"id":7372,"nombre":"PAMPA SALAMANCA","partido":"ESCALANTE","municipio":null,"cp":9007,"latitud":null,"longitud":null},{"id":7469,"nombre":"PAMPA TEPUEL","partido":"LANGUI\u00d1EO","municipio":null,"cp":9201,"latitud":null,"longitud":null},{"id":27902,"nombre":"PARAJE ENTRE RIOS","partido":"CUSHAMEN","municipio":"LAGO PUELO","cp":8431,"latitud":null,"longitud":null},{"id":7412,"nombre":"PARQUE NACIONAL LOS ALERCES","partido":"FUTALEUFU","municipio":null,"cp":9201,"latitud":"-42.9709180","longitud":"-71.5808625"},{"id":7499,"nombre":"PASO DE INDIOS","partido":"PASO DE INDIOS","municipio":"PASO DE INDIOS","cp":9207,"latitud":"-43.8651581","longitud":"-69.0432968"},{"id":7557,"nombre":"PASO DE TORRES","partido":"SARMIENTO","municipio":null,"cp":9020,"latitud":null,"longitud":null},{"id":7470,"nombre":"PASO DEL SAPO","partido":"LANGUI\u00d1EO","municipio":"PASO DEL SAPO","cp":9201,"latitud":"-42.7371110","longitud":"-69.6110020"},{"id":7536,"nombre":"PASO MORENO","partido":"RIO SENGUER","municipio":null,"cp":9227,"latitud":"-44.9930763","longitud":"-70.4420853"},{"id":7538,"nombre":"PASTOS BLANCOS","partido":"RIO SENGUER","municipio":null,"cp":9033,"latitud":"-45.2936554","longitud":"-70.5093994"},{"id":7373,"nombre":"PICO SALAMANCA","partido":"ESCALANTE","municipio":null,"cp":9000,"latitud":null,"longitud":null},{"id":7471,"nombre":"PIEDRA PARADA","partido":"LANGUI\u00d1EO","municipio":null,"cp":9201,"latitud":"-42.6632132","longitud":"-70.1529204"},{"id":7587,"nombre":"PIEDRA SHOTEL","partido":"TEHUELCHES","municipio":null,"cp":9227,"latitud":null,"longitud":null},{"id":7451,"nombre":"PIRRE MAHUIDA","partido":"GASTRE","municipio":null,"cp":9121,"latitud":null,"longitud":null},{"id":7506,"nombre":"PLAYA UNION","partido":"RAWSON","municipio":"RAWSON","cp":9103,"latitud":"-43.3219409","longitud":"-65.0475987"},{"id":7472,"nombre":"POCITOS DE QUICHAURA","partido":"LANGUI\u00d1EO","municipio":null,"cp":9201,"latitud":null,"longitud":null},{"id":7507,"nombre":"PUENTE HENDRE","partido":"RAWSON","municipio":null,"cp":9101,"latitud":"-43.2939547","longitud":"-65.3031833"},{"id":7312,"nombre":"PUERTO LOBOS","partido":"BIEDMA","municipio":null,"cp":8532,"latitud":null,"longitud":null},{"id":7313,"nombre":"PUERTO MADRYN","partido":"BIEDMA","municipio":"PUERTO MADRYN","cp":9120,"latitud":"-42.7691345","longitud":"-65.0439148"},{"id":7314,"nombre":"PUERTO PIRAMIDES","partido":"BIEDMA","municipio":"PUERTO PIRAMIDES","cp":9121,"latitud":"-42.5736170","longitud":"-64.2836890"},{"id":7315,"nombre":"PUERTO SAN ROMAN","partido":"BIEDMA","municipio":null,"cp":9121,"latitud":null,"longitud":null},{"id":7316,"nombre":"PUNTA BAJOS","partido":"BIEDMA","municipio":null,"cp":9121,"latitud":null,"longitud":null},{"id":7317,"nombre":"PUNTA DELGADA","partido":"BIEDMA","municipio":null,"cp":9121,"latitud":"-42.7605286","longitud":"-63.6324120"},{"id":7508,"nombre":"PUNTA NINFAS","partido":"RAWSON","municipio":null,"cp":9120,"latitud":"-42.9681086","longitud":"-64.3143291"},{"id":7318,"nombre":"PUNTA NORTE","partido":"BIEDMA","municipio":null,"cp":9121,"latitud":"-42.0770073","longitud":"-63.7684326"},{"id":7319,"nombre":"PUNTA QUIROGA","partido":"BIEDMA","municipio":null,"cp":9120,"latitud":null,"longitud":null},{"id":7588,"nombre":"PUTRACHOIQUE","partido":"TEHUELCHES","municipio":null,"cp":9223,"latitud":"-43.8166670","longitud":"-70.9166670"},{"id":7374,"nombre":"RADA TILLY","partido":"ESCALANTE","municipio":"RADA TILLY","cp":9001,"latitud":"-45.9305427","longitud":"-67.5583244"},{"id":7348,"nombre":"RANQUIL HUAO","partido":"CUSHAMEN","municipio":null,"cp":9213,"latitud":null,"longitud":null},{"id":7509,"nombre":"RAWSON","partido":"RAWSON","municipio":"RAWSON","cp":9103,"latitud":"-43.2987976","longitud":"-65.0937042"},{"id":27915,"nombre":"RIO CARRILEUFU","partido":"CUSHAMEN","municipio":"CHOLILA","cp":9217,"latitud":null,"longitud":null},{"id":7375,"nombre":"RIO CHICO","partido":"ESCALANTE","municipio":null,"cp":9007,"latitud":"-45.3072510","longitud":"-67.7481842"},{"id":7413,"nombre":"RIO CORINTO","partido":"FUTALEUFU","municipio":null,"cp":9203,"latitud":null,"longitud":null},{"id":7539,"nombre":"RIO FRIAS","partido":"RIO SENGUER","municipio":null,"cp":9227,"latitud":null,"longitud":null},{"id":7540,"nombre":"RIO MAYO","partido":"RIO SENGUER","municipio":"RIO MAYO","cp":9030,"latitud":"-45.6875801","longitud":"-70.2589645"},{"id":7589,"nombre":"RIO PICO","partido":"TEHUELCHES","municipio":"RIO PICO","cp":9225,"latitud":"-44.1774983","longitud":"-71.3686217"},{"id":7388,"nombre":"RUTA 3 KILOMETRO 1646","partido":"FLORENTINO AMEGHINO","municipio":null,"cp":9111,"latitud":null,"longitud":null},{"id":7387,"nombre":"RUTA 3 KILOMETRO 1711","partido":"FLORENTINO AMEGHINO","municipio":null,"cp":9007,"latitud":null,"longitud":null},{"id":7453,"nombre":"SACANANA","partido":"GASTRE","municipio":null,"cp":9121,"latitud":null,"longitud":null},{"id":7320,"nombre":"SALINAS CHICAS","partido":"BIEDMA","municipio":null,"cp":9121,"latitud":null,"longitud":null},{"id":7321,"nombre":"SALINAS GRANDES","partido":"BIEDMA","municipio":null,"cp":9121,"latitud":null,"longitud":null},{"id":7322,"nombre":"SAN JOSE","partido":"BIEDMA","municipio":null,"cp":9121,"latitud":null,"longitud":null},{"id":7558,"nombre":"SARMIENTO","partido":"SARMIENTO","municipio":"SARMIENTO","cp":9020,"latitud":"-45.5905969","longitud":"-69.0699005"},{"id":7608,"nombre":"SEPRUCAL","partido":"TELSEN","municipio":null,"cp":9121,"latitud":null,"longitud":null},{"id":7349,"nombre":"SIEMPRE VIVA","partido":"CUSHAMEN","municipio":null,"cp":9213,"latitud":null,"longitud":null},{"id":7609,"nombre":"SIERRA CHATA","partido":"TELSEN","municipio":null,"cp":9121,"latitud":null,"longitud":null},{"id":22193,"nombre":"SIERRA CHICA","partido":"BIEDMA","municipio":null,"cp":9121,"latitud":null,"longitud":null},{"id":7389,"nombre":"SIERRA COLORADA","partido":"FLORENTINO AMEGHINO","municipio":null,"cp":9007,"latitud":null,"longitud":null},{"id":7559,"nombre":"SIERRA CORRIENTES","partido":"SARMIENTO","municipio":null,"cp":9020,"latitud":null,"longitud":null},{"id":7376,"nombre":"SIERRA CUADRADA","partido":"ESCALANTE","municipio":null,"cp":9007,"latitud":null,"longitud":null},{"id":7414,"nombre":"SIERRA DE TECKA","partido":"FUTALEUFU","municipio":null,"cp":9200,"latitud":null,"longitud":null},{"id":7541,"nombre":"SIERRA NEVADA BUEN PASTO","partido":"RIO SENGUER","municipio":null,"cp":9023,"latitud":null,"longitud":null},{"id":7500,"nombre":"SIERRA NEVADA PASO DE INDIOS","partido":"PASO DE INDIOS","municipio":null,"cp":9207,"latitud":null,"longitud":null},{"id":7377,"nombre":"SIERRA OVERA CHICAS Y GRANDES","partido":"ESCALANTE","municipio":null,"cp":9007,"latitud":null,"longitud":null},{"id":7610,"nombre":"SIERRA ROSADA","partido":"TELSEN","municipio":null,"cp":9121,"latitud":null,"longitud":null},{"id":7560,"nombre":"SIERRA VICTORIA","partido":"SARMIENTO","municipio":null,"cp":9020,"latitud":null,"longitud":null},{"id":7510,"nombre":"SOL DE MAYO","partido":"RAWSON","municipio":null,"cp":9103,"latitud":null,"longitud":null},{"id":7415,"nombre":"SUNICA","partido":"FUTALEUFU","municipio":null,"cp":9200,"latitud":null,"longitud":null},{"id":7611,"nombre":"TALAGAPA","partido":"TELSEN","municipio":null,"cp":9121,"latitud":"-42.1769218","longitud":"-68.3140945"},{"id":7454,"nombre":"TAQUETREN","partido":"GASTRE","municipio":null,"cp":9201,"latitud":"-42.5230141","longitud":"-69.3934021"},{"id":7612,"nombre":"TATUEN","partido":"TELSEN","municipio":null,"cp":9121,"latitud":null,"longitud":null},{"id":7473,"nombre":"TECKA","partido":"LANGUI\u00d1EO","municipio":"TECKA","cp":9201,"latitud":"-43.4925990","longitud":"-70.8098719"},{"id":7613,"nombre":"TELSEN","partido":"TELSEN","municipio":"TELSEN","cp":9121,"latitud":"-42.4387970","longitud":"-66.9454041"},{"id":7436,"nombre":"TOMA DE LOS CANALES","partido":"GAIMAN","municipio":null,"cp":9107,"latitud":null,"longitud":null},{"id":7501,"nombre":"TORO HOSCO","partido":"PASO DE INDIOS","municipio":null,"cp":9207,"latitud":"-44.2973824","longitud":"-69.3781815"},{"id":25772,"nombre":"TRELEW","partido":"RAWSON","municipio":"TRELEW","cp":9100,"latitud":"-43.2534866","longitud":"-65.3081131"},{"id":7437,"nombre":"TREORKI","partido":"GAIMAN","municipio":null,"cp":9105,"latitud":null,"longitud":null},{"id":7591,"nombre":"TRES PICOS","partido":"CUSHAMEN","municipio":null,"cp":9223,"latitud":null,"longitud":null},{"id":7416,"nombre":"TREVELIN","partido":"FUTALEUFU","municipio":"TREVELIN","cp":9203,"latitud":"-43.0914345","longitud":"-71.4632568"},{"id":7390,"nombre":"UZCUDUN","partido":"FLORENTINO AMEGHINO","municipio":null,"cp":9007,"latitud":"-44.2621231","longitud":"-66.1671906"},{"id":7439,"nombre":"VALLE DEL RIO CHUBUT","partido":"GAIMAN","municipio":null,"cp":9121,"latitud":null,"longitud":null},{"id":7474,"nombre":"VALLE DEL TECKA","partido":"LANGUI\u00d1EO","municipio":null,"cp":9201,"latitud":null,"longitud":null},{"id":7417,"nombre":"VALLE FRIO","partido":"FUTALEUFU","municipio":null,"cp":9203,"latitud":null,"longitud":null},{"id":7475,"nombre":"VALLE GARIN","partido":"LANGUI\u00d1EO","municipio":null,"cp":9201,"latitud":null,"longitud":null},{"id":7561,"nombre":"VALLE HERMOSO","partido":"SARMIENTO","municipio":null,"cp":9020,"latitud":null,"longitud":null},{"id":7476,"nombre":"VALLE HONDO","partido":"LANGUI\u00d1EO","municipio":null,"cp":9221,"latitud":null,"longitud":null},{"id":7542,"nombre":"VALLE HUEMULES","partido":"RIO SENGUER","municipio":null,"cp":9039,"latitud":null,"longitud":null},{"id":7438,"nombre":"VALLE LOS MARTIRES","partido":"GAIMAN","municipio":null,"cp":9105,"latitud":null,"longitud":null},{"id":7580,"nombre":"VIGLIONE DOCTOR ATILIO CESAR","partido":"TEHUELCHES","municipio":"VIGLIONE","cp":9225,"latitud":"-44.1988560","longitud":"-71.6666680"},{"id":7418,"nombre":"VILLA FUTALAUFQUEN","partido":"FUTALEUFU","municipio":null,"cp":9200,"latitud":"-42.9006376","longitud":"-71.6061535"},{"id":7441,"nombre":"VILLA INES","partido":"GAIMAN","municipio":null,"cp":9105,"latitud":null,"longitud":null},{"id":27893,"nombre":"VILLA LAGO RIVADAVIA","partido":"CUSHAMEN","municipio":null,"cp":9217,"latitud":"-42.5619599","longitud":"-71.5980227"}]}