{"iso_31662":"AR-Y","provincia":"Jujuy","localidades":[{"id":13193,"nombre":"23 DE AGOSTO","partido":"LEDESMA","municipio":null,"cp":4504,"latitud":"-23.7806454","longitud":"-64.6566238"},{"id":13055,"nombre":"ABDON CASTRO TOLAY","partido":"COCHINOCA","municipio":"ABDON CASTRO TOLAY","cp":4641,"latitud":"-23.3362293","longitud":"-66.0937119"},{"id":16656,"nombre":"ABRA DE PE\u00d1AS","partido":"YAVI","municipio":null,"cp":4650,"latitud":null,"longitud":null},{"id":23987,"nombre":"ABRA DE PIVES","partido":"TUMBAYA","municipio":null,"cp":4618,"latitud":null,"longitud":null},{"id":23843,"nombre":"ABRA DEL TRIGO","partido":"SANTA BARBARA","municipio":null,"cp":4501,"latitud":null,"longitud":null},{"id":13300,"nombre":"ABRA MAYO","partido":"TILCARA","municipio":null,"cp":4624,"latitud":"-23.7752524","longitud":"-65.2980478"},{"id":13056,"nombre":"ABRA PAMPA","partido":"COCHINOCA","municipio":"ABRA PAMPA","cp":4640,"latitud":"-22.7207680","longitud":"-65.6960831"},{"id":13057,"nombre":"ABRALAITE","partido":"COCHINOCA","municipio":"ABRALAITE","cp":4634,"latitud":"-23.1538170","longitud":"-65.7853350"},{"id":23988,"nombre":"ACHACAMAYOC","partido":"TUMBAYA","municipio":null,"cp":4618,"latitud":null,"longitud":null},{"id":23989,"nombre":"AGUA BENDITA","partido":"TUMBAYA","municipio":null,"cp":4618,"latitud":"-23.8320560","longitud":"-65.4755783"},{"id":13058,"nombre":"AGUA CALIENTE DE LA PUNA","partido":"COCHINOCA","municipio":null,"cp":4641,"latitud":"-22.8414623","longitud":"-66.0792786"},{"id":13059,"nombre":"AGUA CHICA","partido":"COCHINOCA","municipio":null,"cp":4640,"latitud":"-22.9351349","longitud":"-65.7536392"},{"id":23441,"nombre":"AGUA DE CASTILLA","partido":"COCHINOCA","municipio":null,"cp":4640,"latitud":"-23.2161107","longitud":"-65.8126833"},{"id":27619,"nombre":"AGUA DE CASTILLA","partido":"YAVI","municipio":null,"cp":4651,"latitud":null,"longitud":null},{"id":23575,"nombre":"AGUA NEGRA","partido":"LEDESMA","municipio":null,"cp":4512,"latitud":"-23.8313751","longitud":"-65.0166016"},{"id":23991,"nombre":"AGUA PALOMAR","partido":"TUMBAYA","municipio":null,"cp":4618,"latitud":null,"longitud":null},{"id":23848,"nombre":"AGUAS BLANCAS","partido":"SANTA BARBARA","municipio":null,"cp":4501,"latitud":null,"longitud":null},{"id":13060,"nombre":"AGUAS CALIENTES","partido":"EL CARMEN","municipio":"AGUAS CALIENTES","cp":4431,"latitud":"-24.5838760","longitud":"-64.9235272"},{"id":27821,"nombre":"AGUAS CALIENTES","partido":"SANTA BARBARA","municipio":null,"cp":4518,"latitud":null,"longitud":null},{"id":16621,"nombre":"ALEGRIA","partido":"LEDESMA","municipio":null,"cp":4506,"latitud":null,"longitud":null},{"id":13301,"nombre":"ALFARCITO","partido":"TILCARA","municipio":null,"cp":4624,"latitud":"-23.5871507","longitud":"-65.3632074"},{"id":23576,"nombre":"ALGARROBAL","partido":"LEDESMA","municipio":null,"cp":4600,"latitud":null,"longitud":null},{"id":13228,"nombre":"ALISOS DE ABAJO","partido":"SAN ANTONIO","municipio":null,"cp":4605,"latitud":null,"longitud":null},{"id":23808,"nombre":"ALISOS DE ARRIBA","partido":"SAN ANTONIO","municipio":null,"cp":4605,"latitud":null,"longitud":null},{"id":13178,"nombre":"ALTO CALILEGUA","partido":"VALLE GRANDE","municipio":null,"cp":4513,"latitud":"-23.5631143","longitud":"-64.8971377"},{"id":13094,"nombre":"ALTO COMEDERO","partido":"DR MANUEL BELGRANO","municipio":"SAN SALVADOR DE JUJUY","cp":4600,"latitud":null,"longitud":null},{"id":23992,"nombre":"ALTO DE CASA","partido":"TUMBAYA","municipio":null,"cp":4618,"latitud":null,"longitud":null},{"id":23993,"nombre":"ALTO DE LOZANO","partido":"TUMBAYA","municipio":null,"cp":4618,"latitud":null,"longitud":null},{"id":23994,"nombre":"ALTO DE MOJON","partido":"TUMBAYA","municipio":null,"cp":4618,"latitud":null,"longitud":null},{"id":23995,"nombre":"ALTO DEL ANGOSTO","partido":"TUMBAYA","municipio":null,"cp":4618,"latitud":null,"longitud":null},{"id":16633,"nombre":"ALTO DEL SALADILLO","partido":"SAN PEDRO","municipio":null,"cp":4500,"latitud":null,"longitud":null},{"id":23996,"nombre":"ALTO DEL SALADILLO","partido":"TUMBAYA","municipio":null,"cp":4522,"latitud":null,"longitud":null},{"id":23997,"nombre":"ALTO HUANCAR","partido":"TUMBAYA","municipio":null,"cp":4618,"latitud":null,"longitud":null},{"id":23998,"nombre":"ALTO MINERO","partido":"TUMBAYA","municipio":null,"cp":4618,"latitud":null,"longitud":null},{"id":23999,"nombre":"ALTO POTRERILLO","partido":"TUMBAYA","municipio":null,"cp":4618,"latitud":null,"longitud":null},{"id":24000,"nombre":"ALTO QUEMADO","partido":"TUMBAYA","municipio":null,"cp":4618,"latitud":null,"longitud":null},{"id":24001,"nombre":"ALTO QUIRQUINCHO","partido":"TUMBAYA","municipio":null,"cp":4618,"latitud":null,"longitud":null},{"id":13109,"nombre":"ALTO VERDE","partido":"EL CARMEN","municipio":null,"cp":4608,"latitud":"-24.4262104","longitud":"-65.1074066"},{"id":16640,"nombre":"AMANCAYOC","partido":"VALLE GRANDE","municipio":null,"cp":4513,"latitud":null,"longitud":null},{"id":16642,"nombre":"AMARGURAS","partido":"VALLE GRANDE","municipio":null,"cp":4513,"latitud":null,"longitud":null},{"id":23975,"nombre":"ANGOSTO DEL PERCHEL","partido":"TILCARA","municipio":null,"cp":4626,"latitud":null,"longitud":null},{"id":23578,"nombre":"ANIMAS","partido":"LEDESMA","municipio":null,"cp":4512,"latitud":null,"longitud":null},{"id":24066,"nombre":"ANTIGUO","partido":"VALLE GRANDE","municipio":null,"cp":4631,"latitud":null,"longitud":null},{"id":23758,"nombre":"ANTIGUYOS","partido":"RINCONADA","municipio":null,"cp":4643,"latitud":null,"longitud":null},{"id":23533,"nombre":"ANTUMPA","partido":"HUMAHUACA","municipio":null,"cp":4632,"latitud":null,"longitud":null},{"id":23579,"nombre":"APAREJO","partido":"LEDESMA","municipio":null,"cp":4512,"latitud":null,"longitud":null},{"id":13145,"nombre":"APARZO","partido":"HUMAHUACA","municipio":null,"cp":4630,"latitud":"-23.0996196","longitud":"-65.1862116"},{"id":13061,"nombre":"ARBOLITO NUEVO","partido":"COCHINOCA","municipio":null,"cp":4643,"latitud":"-22.5939300","longitud":"-65.8503600"},{"id":13179,"nombre":"ARENAL BARROSO","partido":"LEDESMA","municipio":null,"cp":4506,"latitud":null,"longitud":null},{"id":13236,"nombre":"ARRAYANAL","partido":"SAN PEDRO","municipio":"ARRAYANAL","cp":4503,"latitud":"-24.1755613","longitud":"-64.8402659"},{"id":13237,"nombre":"ARROYO COLORADO","partido":"SAN PEDRO","municipio":null,"cp":4501,"latitud":"-24.3403731","longitud":"-64.6655404"},{"id":23850,"nombre":"ARROYO DEL MEDIO","partido":"SANTA BARBARA","municipio":null,"cp":4501,"latitud":"-23.9400215","longitud":"-64.3496399"},{"id":23809,"nombre":"ATALAYA","partido":"SAN ANTONIO","municipio":null,"cp":4600,"latitud":null,"longitud":null},{"id":13146,"nombre":"AZUL PAMPA","partido":"HUMAHUACA","municipio":null,"cp":4631,"latitud":"-22.9690783","longitud":"-65.4366755"},{"id":16622,"nombre":"BAJADA ALTA","partido":"LEDESMA","municipio":null,"cp":4506,"latitud":null,"longitud":null},{"id":13147,"nombre":"BALIAZO","partido":"HUMAHUACA","municipio":null,"cp":4630,"latitud":null,"longitud":null},{"id":23534,"nombre":"BALLIAZO","partido":"HUMAHUACA","municipio":null,"cp":4630,"latitud":null,"longitud":null},{"id":13316,"nombre":"BARCENA","partido":"TUMBAYA","municipio":null,"cp":4616,"latitud":"-23.9694742","longitud":"-65.4464777"},{"id":13062,"nombre":"BARRANCAS","partido":"COCHINOCA","municipio":null,"cp":4641,"latitud":null,"longitud":null},{"id":23365,"nombre":"BARRIO 9 DE JULIO","partido":"DR MANUEL BELGRANO","municipio":"SAN SALVADOR DE JUJUY","cp":4600,"latitud":null,"longitud":null},{"id":13102,"nombre":"BARRIO ALBERDI","partido":"DR MANUEL BELGRANO","municipio":"SAN SALVADOR DE JUJUY","cp":4600,"latitud":null,"longitud":null},{"id":23370,"nombre":"BARRIO ALTO LA LOMA","partido":"DR MANUEL BELGRANO","municipio":"SAN SALVADOR DE JUJUY","cp":4600,"latitud":null,"longitud":null},{"id":23367,"nombre":"BARRIO ALTO LA VI\u00d1A","partido":"DR MANUEL BELGRANO","municipio":"SAN SALVADOR DE JUJUY","cp":4600,"latitud":null,"longitud":null},{"id":23368,"nombre":"BARRIO BAJO LA VI\u00d1A","partido":"DR MANUEL BELGRANO","municipio":"SAN SALVADOR DE JUJUY","cp":4600,"latitud":null,"longitud":null},{"id":23379,"nombre":"BARRIO CHIJRA","partido":"DR MANUEL BELGRANO","municipio":"SAN SALVADOR DE JUJUY","cp":4600,"latitud":null,"longitud":null},{"id":13104,"nombre":"BARRIO CUYAYA","partido":"DR MANUEL BELGRANO","municipio":"SAN SALVADOR DE JUJUY","cp":4600,"latitud":null,"longitud":null},{"id":23821,"nombre":"BARRIO LA PROVIDENCIA","partido":"SAN PEDRO","municipio":null,"cp":4500,"latitud":null,"longitud":null},{"id":13110,"nombre":"BARRIO LA UNION","partido":"EL CARMEN","municipio":null,"cp":4648,"latitud":"-24.4035421","longitud":"-65.0685901"},{"id":13106,"nombre":"BARRIO LUJAN","partido":"DR MANUEL BELGRANO","municipio":"SAN SALVADOR DE JUJUY","cp":4600,"latitud":null,"longitud":null},{"id":23372,"nombre":"BARRIO PARQUE 19 DE ABRIL","partido":"DR MANUEL BELGRANO","municipio":"SAN SALVADOR DE JUJUY","cp":4600,"latitud":null,"longitud":null},{"id":13107,"nombre":"BARRIO SANTA RITA","partido":"DR MANUEL BELGRANO","municipio":"SAN SALVADOR DE JUJUY","cp":4600,"latitud":null,"longitud":null},{"id":13353,"nombre":"BARRIOS","partido":"YAVI","municipio":"BARRIOS","cp":4650,"latitud":"-22.2477578","longitud":"-65.5290430"},{"id":23580,"nombre":"BATEAS","partido":"LEDESMA","municipio":null,"cp":4512,"latitud":null,"longitud":null},{"id":23851,"nombre":"BELLA VISTA","partido":"SANTA BARBARA","municipio":null,"cp":4501,"latitud":"-23.8041649","longitud":"-64.5816269"},{"id":23581,"nombre":"BELLA VISTA","partido":"LEDESMA","municipio":null,"cp":4512,"latitud":"-23.8269501","longitud":"-64.8263474"},{"id":23976,"nombre":"BELLA VISTA","partido":"TILCARA","municipio":null,"cp":4622,"latitud":"-23.6579838","longitud":"-65.4196320"},{"id":24002,"nombre":"BOLETERIA","partido":"TUMBAYA","municipio":null,"cp":4618,"latitud":null,"longitud":null},{"id":13317,"nombre":"BOMBA","partido":"TUMBAYA","municipio":null,"cp":4616,"latitud":null,"longitud":null},{"id":13111,"nombre":"BORDO LA ISLA","partido":"EL CARMEN","municipio":null,"cp":4608,"latitud":"-24.3953705","longitud":"-65.1765976"},{"id":13273,"nombre":"CABRERIA","partido":"SANTA CATALINA","municipio":null,"cp":4655,"latitud":"-22.0941086","longitud":"-66.2094955"},{"id":23853,"nombre":"CACHI PUNCO","partido":"SANTA BARBARA","municipio":null,"cp":4501,"latitud":null,"longitud":null},{"id":23977,"nombre":"CACHIHUAICO","partido":"TILCARA","municipio":null,"cp":4622,"latitud":null,"longitud":null},{"id":16643,"nombre":"CACHO","partido":"VALLE GRANDE","municipio":null,"cp":4513,"latitud":null,"longitud":null},{"id":23488,"nombre":"CADILLA","partido":"EL CARMEN","municipio":null,"cp":4608,"latitud":null,"longitud":null},{"id":13180,"nombre":"CAIMANCITO","partido":"LEDESMA","municipio":"CAIMANCITO","cp":4516,"latitud":"-23.7423706","longitud":"-64.5938721"},{"id":24084,"nombre":"CAJAS","partido":"YAVI","municipio":null,"cp":4651,"latitud":null,"longitud":null},{"id":23920,"nombre":"CALAHOYO","partido":"SANTA CATALINA","municipio":null,"cp":4655,"latitud":"-22.0512028","longitud":"-65.8417664"},{"id":23536,"nombre":"CALETE","partido":"HUMAHUACA","municipio":null,"cp":4630,"latitud":"-23.2550900","longitud":"-65.3379700"},{"id":13181,"nombre":"CALILEGUA","partido":"LEDESMA","municipio":"CALILEGUA","cp":4514,"latitud":"-23.7753105","longitud":"-64.7713318"},{"id":23583,"nombre":"CAMPO BAJO","partido":"LEDESMA","municipio":null,"cp":4512,"latitud":null,"longitud":null},{"id":23598,"nombre":"CAMPO COLORADO","partido":"LEDESMA","municipio":null,"cp":4512,"latitud":null,"longitud":null},{"id":13112,"nombre":"CAMPO LA TUNA","partido":"EL CARMEN","municipio":null,"cp":4608,"latitud":null,"longitud":null},{"id":24003,"nombre":"CAMPO OCULTO","partido":"TUMBAYA","municipio":null,"cp":4618,"latitud":null,"longitud":null},{"id":23978,"nombre":"CA\u00d1AS","partido":"TILCARA","municipio":null,"cp":4624,"latitud":null,"longitud":null},{"id":24004,"nombre":"CANCHAHUASI","partido":"TUMBAYA","municipio":null,"cp":4618,"latitud":null,"longitud":null},{"id":23922,"nombre":"CANCHUELA","partido":"SANTA CATALINA","municipio":null,"cp":4655,"latitud":null,"longitud":null},{"id":23599,"nombre":"CANDELARIA","partido":"LEDESMA","municipio":null,"cp":4512,"latitud":null,"longitud":null},{"id":13354,"nombre":"CANGREJILLOS","partido":"YAVI","municipio":"CANGREJILLOS","cp":4644,"latitud":"-22.4229610","longitud":"-65.5801250"},{"id":13355,"nombre":"CANGREJOS","partido":"YAVI","municipio":null,"cp":4644,"latitud":"-22.4720391","longitud":"-65.5510886"},{"id":24005,"nombre":"CAPACHACRA","partido":"TUMBAYA","municipio":null,"cp":4618,"latitud":null,"longitud":null},{"id":23537,"nombre":"CAPLA","partido":"HUMAHUACA","municipio":null,"cp":4626,"latitud":"-23.3298397","longitud":"-65.2940369"},{"id":13356,"nombre":"CARACARA","partido":"YAVI","municipio":null,"cp":4644,"latitud":null,"longitud":null},{"id":13212,"nombre":"CARAHUASI","partido":"RINCONADA","municipio":null,"cp":4643,"latitud":"-22.5389400","longitud":"-65.9613800"},{"id":13197,"nombre":"CARAHUNCO","partido":"PALPALA","municipio":null,"cp":4612,"latitud":"-24.3137765","longitud":"-65.0785405"},{"id":13148,"nombre":"CARAYOC","partido":"HUMAHUACA","municipio":null,"cp":4651,"latitud":null,"longitud":null},{"id":24006,"nombre":"CARCEL","partido":"TUMBAYA","municipio":null,"cp":4618,"latitud":"-23.8174076","longitud":"-65.5332718"},{"id":13063,"nombre":"CASA COLORADA","partido":"COCHINOCA","municipio":null,"cp":4643,"latitud":null,"longitud":null},{"id":23538,"nombre":"CASA GRANDE","partido":"HUMAHUACA","municipio":null,"cp":4634,"latitud":"-23.2227100","longitud":"-65.5527800"},{"id":24007,"nombre":"CASA NEGRA","partido":"TUMBAYA","municipio":null,"cp":4618,"latitud":null,"longitud":null},{"id":24008,"nombre":"CASA VIEJA","partido":"TUMBAYA","municipio":null,"cp":4618,"latitud":null,"longitud":null},{"id":13064,"nombre":"CASABINDO","partido":"COCHINOCA","municipio":null,"cp":4641,"latitud":"-22.9439052","longitud":"-66.0287330"},{"id":23539,"nombre":"CASAYOCK","partido":"HUMAHUACA","municipio":null,"cp":4632,"latitud":"-23.1532010","longitud":"-65.4384400"},{"id":23540,"nombre":"CASILLA","partido":"HUMAHUACA","municipio":null,"cp":4632,"latitud":null,"longitud":null},{"id":13182,"nombre":"CASILLAS","partido":"LEDESMA","municipio":null,"cp":4632,"latitud":null,"longitud":null},{"id":13274,"nombre":"CASIRA","partido":"SANTA CATALINA","municipio":null,"cp":4653,"latitud":"-21.9693796","longitud":"-65.9003915"},{"id":13342,"nombre":"CASPALA","partido":"VALLE GRANDE","municipio":"CASPALA","cp":4631,"latitud":"-23.3572360","longitud":"-65.1184000"},{"id":13357,"nombre":"CASTI","partido":"YAVI","municipio":null,"cp":4651,"latitud":"-22.1656200","longitud":"-65.4427800"},{"id":13113,"nombre":"CATAMONTA\u00d1A","partido":"EL CARMEN","municipio":null,"cp":4603,"latitud":null,"longitud":null},{"id":13065,"nombre":"CATARI","partido":"COCHINOCA","municipio":null,"cp":4640,"latitud":null,"longitud":null},{"id":13292,"nombre":"CATUA","partido":"SUSQUES","municipio":"CATUA","cp":4413,"latitud":"-23.8618510","longitud":"-67.0041240"},{"id":23949,"nombre":"CAUCHARI","partido":"SUSQUES","municipio":null,"cp":4641,"latitud":null,"longitud":null},{"id":13229,"nombre":"CEIBAL","partido":"SAN ANTONIO","municipio":null,"cp":4605,"latitud":null,"longitud":null},{"id":13198,"nombre":"CENTRO FORESTAL","partido":"PALPALA","municipio":null,"cp":4612,"latitud":"-24.2278470","longitud":"-65.1738697"},{"id":24085,"nombre":"CERRILLOS","partido":"YAVI","municipio":null,"cp":4653,"latitud":"-22.2992325","longitud":"-65.8416138"},{"id":13275,"nombre":"CERRITO","partido":"SANTA CATALINA","municipio":null,"cp":4653,"latitud":null,"longitud":null},{"id":27820,"nombre":"CERRO AGUA CALIENTE","partido":"COCHINOCA","municipio":null,"cp":4641,"latitud":null,"longitud":null},{"id":16612,"nombre":"CERRO CHICO","partido":"COCHINOCA","municipio":null,"cp":4640,"latitud":null,"longitud":null},{"id":13230,"nombre":"CERRO NEGRO","partido":"SAN ANTONIO","municipio":null,"cp":4605,"latitud":"-24.3736267","longitud":"-65.6040649"},{"id":23775,"nombre":"CERRO REDONDO","partido":"RINCONADA","municipio":null,"cp":4643,"latitud":null,"longitud":null},{"id":13199,"nombre":"CERROS ZAPLA","partido":"PALPALA","municipio":null,"cp":4612,"latitud":null,"longitud":null},{"id":23600,"nombre":"CEVILAR","partido":"LEDESMA","municipio":null,"cp":4512,"latitud":null,"longitud":null},{"id":13183,"nombre":"CHALICAN","partido":"LEDESMA","municipio":null,"cp":4504,"latitud":"-24.0708658","longitud":"-64.8037328"},{"id":13114,"nombre":"CHAMICAL","partido":"EL CARMEN","municipio":null,"cp":4608,"latitud":null,"longitud":null},{"id":23601,"nombre":"CHA\u00d1AR SOLO","partido":"LEDESMA","municipio":null,"cp":4516,"latitud":null,"longitud":null},{"id":23602,"nombre":"CHA\u00d1ARAL","partido":"LEDESMA","municipio":null,"cp":4516,"latitud":null,"longitud":null},{"id":24009,"nombre":"CHA\u00d1ARCITO","partido":"TUMBAYA","municipio":null,"cp":4618,"latitud":null,"longitud":null},{"id":23378,"nombre":"CHA\u00d1I","partido":"DR MANUEL BELGRANO","municipio":null,"cp":4616,"latitud":null,"longitud":null},{"id":24010,"nombre":"CHA\u00d1I CHICO","partido":"TUMBAYA","municipio":null,"cp":4618,"latitud":null,"longitud":null},{"id":13149,"nombre":"CHAUPI RODERO","partido":"HUMAHUACA","municipio":null,"cp":4632,"latitud":null,"longitud":null},{"id":13066,"nombre":"CHAUPI RODERO","partido":"COCHINOCA","municipio":null,"cp":4640,"latitud":null,"longitud":null},{"id":24011,"nombre":"CHILCAR","partido":"TUMBAYA","municipio":null,"cp":4618,"latitud":null,"longitud":null},{"id":24067,"nombre":"CHILCAR","partido":"VALLE GRANDE","municipio":null,"cp":4631,"latitud":null,"longitud":null},{"id":13318,"nombre":"CHILCAYOC","partido":"TUMBAYA","municipio":null,"cp":4616,"latitud":"-23.9388800","longitud":"-65.4722900"},{"id":13358,"nombre":"CHOCOITE","partido":"YAVI","municipio":null,"cp":4644,"latitud":"-22.3693912","longitud":"-65.7593173"},{"id":13150,"nombre":"CHORCAN","partido":"HUMAHUACA","municipio":null,"cp":4631,"latitud":"-23.0516100","longitud":"-65.2078500"},{"id":13067,"nombre":"CHOROJRA","partido":"COCHINOCA","municipio":null,"cp":4640,"latitud":null,"longitud":null},{"id":24012,"nombre":"CHORRILLO","partido":"TUMBAYA","municipio":null,"cp":4618,"latitud":null,"longitud":null},{"id":13302,"nombre":"CHORRILLOS","partido":"TILCARA","municipio":null,"cp":4626,"latitud":null,"longitud":null},{"id":23541,"nombre":"CHORRILLOS","partido":"HUMAHUACA","municipio":null,"cp":4630,"latitud":"-23.1296700","longitud":"-65.3664600"},{"id":16644,"nombre":"CHORRO","partido":"VALLE GRANDE","municipio":null,"cp":4513,"latitud":null,"longitud":null},{"id":13151,"nombre":"CHUCALEZNA","partido":"HUMAHUACA","municipio":null,"cp":4626,"latitud":"-23.3555938","longitud":"-65.3464402"},{"id":13118,"nombre":"CHUCUPAL","partido":"EL CARMEN","municipio":null,"cp":4603,"latitud":null,"longitud":null},{"id":23443,"nombre":"CHULIN O INCA NUEVA","partido":"COCHINOCA","municipio":null,"cp":4640,"latitud":null,"longitud":null},{"id":23380,"nombre":"CHUQUINA","partido":"DR MANUEL BELGRANO","municipio":null,"cp":4600,"latitud":"-24.2492924","longitud":"-65.3866806"},{"id":13152,"nombre":"CIANZO","partido":"HUMAHUACA","municipio":null,"cp":4630,"latitud":"-23.1510061","longitud":"-65.1275318"},{"id":23604,"nombre":"CIENAGA","partido":"LEDESMA","municipio":null,"cp":4512,"latitud":null,"longitud":null},{"id":24013,"nombre":"CIENAGA GRANDE","partido":"TUMBAYA","municipio":null,"cp":4643,"latitud":"-23.8936329","longitud":"-65.9972229"},{"id":13213,"nombre":"CIENEGO GRANDE","partido":"RINCONADA","municipio":null,"cp":4643,"latitud":null,"longitud":null},{"id":13276,"nombre":"CIENEGUILLAS","partido":"SANTA CATALINA","municipio":"CIENEGUILLAS","cp":4653,"latitud":"-22.1002517","longitud":"-65.8670538"},{"id":23777,"nombre":"CINCEL","partido":"RINCONADA","municipio":null,"cp":4643,"latitud":null,"longitud":null},{"id":23445,"nombre":"COCHAGATE","partido":"COCHINOCA","municipio":null,"cp":4640,"latitud":null,"longitud":null},{"id":13068,"nombre":"COCHINOCA","partido":"COCHINOCA","municipio":null,"cp":4641,"latitud":"-22.7419005","longitud":"-65.8972925"},{"id":13153,"nombre":"COCTACA","partido":"HUMAHUACA","municipio":null,"cp":4631,"latitud":"-23.1281937","longitud":"-65.2973379"},{"id":24014,"nombre":"COIRURO","partido":"TUMBAYA","municipio":null,"cp":4618,"latitud":"-23.8877163","longitud":"-65.4577408"},{"id":16623,"nombre":"COLONIA 8 DE SEPTIEMBRE","partido":"LEDESMA","municipio":null,"cp":4512,"latitud":null,"longitud":null},{"id":16619,"nombre":"COLONIA LOS LAPACHOS","partido":"EL CARMEN","municipio":null,"cp":4606,"latitud":null,"longitud":null},{"id":13069,"nombre":"COLORADOS","partido":"TUMBAYA","municipio":null,"cp":4618,"latitud":"-23.5713800","longitud":"-65.6973100"},{"id":24015,"nombre":"CONDOR","partido":"TUMBAYA","municipio":null,"cp":4618,"latitud":null,"longitud":null},{"id":24086,"nombre":"CONDOR","partido":"HUMAHUACA","municipio":null,"cp":4630,"latitud":"-22.9046383","longitud":"-65.2937012"},{"id":27848,"nombre":"CORANZULI","partido":"SUSQUES","municipio":"CORANZULI","cp":4643,"latitud":"-23.3997530","longitud":"-66.3674480"},{"id":13154,"nombre":"CORAYA","partido":"HUMAHUACA","municipio":null,"cp":4630,"latitud":"-23.1634360","longitud":"-65.4436700"},{"id":13115,"nombre":"CORONEL ARIAS","partido":"EL CARMEN","municipio":null,"cp":4608,"latitud":"-24.4179805","longitud":"-65.1552015"},{"id":24087,"nombre":"CORRAL BLANCO","partido":"YAVI","municipio":null,"cp":4655,"latitud":"-22.4777281","longitud":"-65.3696535"},{"id":23381,"nombre":"CORRAL DE PIEDRAS","partido":"DR MANUEL BELGRANO","municipio":null,"cp":4601,"latitud":null,"longitud":null},{"id":24088,"nombre":"CORRALITO","partido":"YAVI","municipio":null,"cp":4650,"latitud":null,"longitud":null},{"id":23605,"nombre":"CORTADERAS","partido":"LEDESMA","municipio":null,"cp":4512,"latitud":null,"longitud":null},{"id":24016,"nombre":"CORTADERAS","partido":"TUMBAYA","municipio":null,"cp":4618,"latitud":null,"longitud":null},{"id":24068,"nombre":"CORTADERAS","partido":"VALLE GRANDE","municipio":null,"cp":4631,"latitud":null,"longitud":null},{"id":24017,"nombre":"COSTILLAR","partido":"TUMBAYA","municipio":null,"cp":4618,"latitud":null,"longitud":null},{"id":13214,"nombre":"COYAGUAIMA","partido":"RINCONADA","municipio":null,"cp":4643,"latitud":"-22.7704436","longitud":"-66.4404270"},{"id":24018,"nombre":"CRUZ NIDO","partido":"TUMBAYA","municipio":null,"cp":4618,"latitud":null,"longitud":null},{"id":13215,"nombre":"CUSI CUSI","partido":"SANTA CATALINA","municipio":"CUSI CUSI","cp":4643,"latitud":"-22.3402150","longitud":"-66.4940210"},{"id":13155,"nombre":"DOGLONZO","partido":"HUMAHUACA","municipio":null,"cp":4631,"latitud":null,"longitud":null},{"id":23607,"nombre":"DON JORGE","partido":"LEDESMA","municipio":null,"cp":4512,"latitud":null,"longitud":null},{"id":13070,"nombre":"DONCELLAS","partido":"COCHINOCA","municipio":null,"cp":4641,"latitud":"-22.8259641","longitud":"-66.0396922"},{"id":23612,"nombre":"DURAZNAL","partido":"LEDESMA","municipio":null,"cp":4512,"latitud":null,"longitud":null},{"id":23824,"nombre":"EL ACHERAL","partido":"SAN PEDRO","municipio":null,"cp":4500,"latitud":"-24.4097117","longitud":"-64.8107313"},{"id":13156,"nombre":"EL AGUILAR","partido":"HUMAHUACA","municipio":"EL AGUILAR","cp":4634,"latitud":"-23.2102400","longitud":"-65.6779050"},{"id":23614,"nombre":"EL AIBAL","partido":"LEDESMA","municipio":null,"cp":4512,"latitud":null,"longitud":null},{"id":23382,"nombre":"EL ALGARROBAL","partido":"DR MANUEL BELGRANO","municipio":null,"cp":4600,"latitud":null,"longitud":null},{"id":13200,"nombre":"EL ALGARROBAL","partido":"PALPALA","municipio":null,"cp":4612,"latitud":"-24.1822987","longitud":"-65.2077408"},{"id":23385,"nombre":"EL AMANCAY","partido":"DR MANUEL BELGRANO","municipio":null,"cp":4600,"latitud":null,"longitud":null},{"id":13319,"nombre":"EL ANGOSTO","partido":"SANTA CATALINA","municipio":null,"cp":4655,"latitud":"-21.8172925","longitud":"-66.1792367"},{"id":13253,"nombre":"EL ARENAL","partido":"SANTA BARBARA","municipio":null,"cp":4500,"latitud":null,"longitud":null},{"id":23386,"nombre":"EL ARENAL","partido":"DR MANUEL BELGRANO","municipio":null,"cp":4601,"latitud":null,"longitud":null},{"id":23617,"nombre":"EL BANANAL","partido":"LEDESMA","municipio":null,"cp":4512,"latitud":"-23.5694103","longitud":"-64.5093002"},{"id":13201,"nombre":"EL BRETE","partido":"PALPALA","municipio":null,"cp":4612,"latitud":"-24.2374265","longitud":"-65.1825424"},{"id":27529,"nombre":"EL CABRAL","partido":"EL CARMEN","municipio":null,"cp":4608,"latitud":null,"longitud":null},{"id":13116,"nombre":"EL CADILLAL","partido":"EL CARMEN","municipio":null,"cp":4608,"latitud":"-24.3891468","longitud":"-65.0987320"},{"id":23979,"nombre":"EL CALLEJON","partido":"TILCARA","municipio":null,"cp":4622,"latitud":null,"longitud":null},{"id":16624,"nombre":"EL CARDONAL","partido":"LEDESMA","municipio":null,"cp":4506,"latitud":null,"longitud":null},{"id":13117,"nombre":"EL CARMEN","partido":"EL CARMEN","municipio":"EL CARMEN","cp":4603,"latitud":"-24.3878784","longitud":"-65.2613831"},{"id":23619,"nombre":"EL CAULARIO","partido":"LEDESMA","municipio":null,"cp":4512,"latitud":null,"longitud":null},{"id":27794,"nombre":"EL CHAGUARAL","partido":"SAN PEDRO","municipio":null,"cp":4500,"latitud":null,"longitud":null},{"id":24019,"nombre":"EL COLORADO","partido":"TUMBAYA","municipio":null,"cp":4618,"latitud":null,"longitud":null},{"id":13157,"nombre":"EL CONDOR","partido":"YAVI","municipio":"EL CONDOR","cp":4644,"latitud":"-22.3834510","longitud":"-65.3279050"},{"id":23388,"nombre":"EL CUCHO","partido":"DR MANUEL BELGRANO","municipio":null,"cp":4600,"latitud":"-24.0939121","longitud":"-65.2102585"},{"id":13202,"nombre":"EL CUCHO","partido":"PALPALA","municipio":null,"cp":4612,"latitud":"-24.0898900","longitud":"-65.2026300"},{"id":13303,"nombre":"EL DURAZNO","partido":"TILCARA","municipio":null,"cp":4624,"latitud":null,"longitud":null},{"id":13254,"nombre":"EL FUERTE","partido":"SANTA BARBARA","municipio":"EL FUERTE","cp":4501,"latitud":"-24.2604210","longitud":"-64.4103510"},{"id":23621,"nombre":"EL MANANTIAL","partido":"LEDESMA","municipio":null,"cp":4512,"latitud":null,"longitud":null},{"id":23879,"nombre":"EL MISTOL","partido":"SANTA BARBARA","municipio":null,"cp":4501,"latitud":null,"longitud":null},{"id":24020,"nombre":"EL MOLINO","partido":"TUMBAYA","municipio":null,"cp":4618,"latitud":null,"longitud":null},{"id":23489,"nombre":"EL MOLLAR","partido":"EL CARMEN","municipio":null,"cp":4608,"latitud":null,"longitud":null},{"id":16657,"nombre":"EL MONUMENTO","partido":"YAVI","municipio":null,"cp":4650,"latitud":null,"longitud":null},{"id":13320,"nombre":"EL MORENO","partido":"TUMBAYA","municipio":null,"cp":4618,"latitud":"-23.8418583","longitud":"-65.8300087"},{"id":24021,"nombre":"EL MORRO","partido":"TUMBAYA","municipio":null,"cp":4618,"latitud":null,"longitud":null},{"id":23623,"nombre":"EL NARANJO","partido":"LEDESMA","municipio":null,"cp":4512,"latitud":null,"longitud":null},{"id":13119,"nombre":"EL OLLERO","partido":"EL CARMEN","municipio":null,"cp":4603,"latitud":null,"longitud":null},{"id":23810,"nombre":"EL OLLERO","partido":"SAN ANTONIO","municipio":null,"cp":4605,"latitud":null,"longitud":null},{"id":23880,"nombre":"EL OLVIDO","partido":"SANTA BARBARA","municipio":null,"cp":4501,"latitud":null,"longitud":null},{"id":13255,"nombre":"EL PALMAR","partido":"SANTA BARBARA","municipio":null,"cp":4501,"latitud":"-24.0700000","longitud":"-64.5838000"},{"id":13256,"nombre":"EL PALMAR DE SAN FRANCISCO","partido":"SANTA BARBARA","municipio":null,"cp":4542,"latitud":null,"longitud":null},{"id":13308,"nombre":"EL PERCHEL","partido":"TILCARA","municipio":null,"cp":4624,"latitud":"-23.4931400","longitud":"-65.3669600"},{"id":13257,"nombre":"EL PIQUETE","partido":"SANTA BARBARA","municipio":"EL PIQUETE","cp":4501,"latitud":"-24.1810240","longitud":"-64.6790060"},{"id":13120,"nombre":"EL PONGO","partido":"EL CARMEN","municipio":null,"cp":4608,"latitud":null,"longitud":null},{"id":23950,"nombre":"EL PORVENIR","partido":"SUSQUES","municipio":null,"cp":4641,"latitud":"-23.8418159","longitud":"-66.7906036"},{"id":23446,"nombre":"EL POTRERO DE LA PUNA","partido":"COCHINOCA","municipio":null,"cp":4641,"latitud":null,"longitud":null},{"id":13239,"nombre":"EL QUEMADO","partido":"SAN PEDRO","municipio":null,"cp":4504,"latitud":"-24.0933961","longitud":"-64.8238742"},{"id":13203,"nombre":"EL REMATE","partido":"PALPALA","municipio":null,"cp":4612,"latitud":"-24.2741040","longitud":"-65.1523017"},{"id":23389,"nombre":"EL REMATE","partido":"DR MANUEL BELGRANO","municipio":null,"cp":4612,"latitud":null,"longitud":null},{"id":23625,"nombre":"EL RIO NEGRO","partido":"LEDESMA","municipio":null,"cp":4504,"latitud":null,"longitud":null},{"id":13321,"nombre":"EL SALADILLO","partido":"TUMBAYA","municipio":null,"cp":4500,"latitud":null,"longitud":null},{"id":23628,"nombre":"EL SAUCE","partido":"LEDESMA","municipio":null,"cp":4512,"latitud":null,"longitud":null},{"id":23882,"nombre":"EL SUNCHAL","partido":"SANTA BARBARA","municipio":null,"cp":4501,"latitud":null,"longitud":null},{"id":13121,"nombre":"EL SUNCHAL","partido":"EL CARMEN","municipio":null,"cp":4603,"latitud":"-24.4052700","longitud":"-65.2416700"},{"id":13258,"nombre":"EL TALAR","partido":"SANTA BARBARA","municipio":"EL TALAR","cp":4542,"latitud":"-23.5578938","longitud":"-64.3628616"},{"id":23887,"nombre":"EL TIPAL","partido":"SANTA BARBARA","municipio":null,"cp":4501,"latitud":null,"longitud":null},{"id":13122,"nombre":"EL TOBA","partido":"EL CARMEN","municipio":null,"cp":4606,"latitud":null,"longitud":null},{"id":13294,"nombre":"EL TORO","partido":"SUSQUES","municipio":null,"cp":4643,"latitud":"-23.1389751","longitud":"-66.7524459"},{"id":24022,"nombre":"ENCRUCIJADA","partido":"TUMBAYA","municipio":null,"cp":4618,"latitud":null,"longitud":null},{"id":23826,"nombre":"ENSENADA","partido":"SAN PEDRO","municipio":null,"cp":4500,"latitud":null,"longitud":null},{"id":23491,"nombre":"ENTRE RIOS","partido":"EL CARMEN","municipio":null,"cp":4608,"latitud":null,"longitud":null},{"id":13359,"nombre":"ESCAYA","partido":"YAVI","municipio":null,"cp":4644,"latitud":null,"longitud":null},{"id":23630,"nombre":"ESQUINA","partido":"LEDESMA","municipio":null,"cp":4512,"latitud":null,"longitud":null},{"id":24023,"nombre":"ESQUINA DE HUANCAR","partido":"TUMBAYA","municipio":null,"cp":4618,"latitud":null,"longitud":null},{"id":23828,"nombre":"ESQUINA DE QUISTO","partido":"SAN PEDRO","municipio":null,"cp":4500,"latitud":null,"longitud":null},{"id":24024,"nombre":"ESQUINA GRANDE","partido":"TUMBAYA","municipio":null,"cp":4618,"latitud":null,"longitud":null},{"id":23544,"nombre":"ESQUINAS BLANCAS","partido":"HUMAHUACA","municipio":null,"cp":4634,"latitud":null,"longitud":null},{"id":13123,"nombre":"ESTACION PERICO","partido":"EL CARMEN","municipio":null,"cp":4608,"latitud":null,"longitud":null},{"id":13071,"nombre":"ESTACION ZOOTECNICA","partido":"COCHINOCA","municipio":null,"cp":4640,"latitud":null,"longitud":null},{"id":24025,"nombre":"ESTANCIA GRANDE","partido":"TUMBAYA","municipio":null,"cp":4618,"latitud":"-23.6077099","longitud":"-65.5273438"},{"id":23631,"nombre":"FALDA DEL QUEBRACHAL","partido":"LEDESMA","municipio":null,"cp":4512,"latitud":null,"longitud":null},{"id":23633,"nombre":"FALDA MOJON","partido":"LEDESMA","municipio":null,"cp":4512,"latitud":null,"longitud":null},{"id":23636,"nombre":"FALDA MONTOSA","partido":"LEDESMA","municipio":null,"cp":4512,"latitud":null,"longitud":null},{"id":23779,"nombre":"FARILLON","partido":"RINCONADA","municipio":null,"cp":4643,"latitud":null,"longitud":null},{"id":23640,"nombre":"FINCA AGUA SALADA","partido":"LEDESMA","municipio":null,"cp":4516,"latitud":null,"longitud":null},{"id":23642,"nombre":"FINCA AGUA TAPADA","partido":"LEDESMA","municipio":null,"cp":4516,"latitud":null,"longitud":null},{"id":23646,"nombre":"FINCA LA LUCRECIA","partido":"LEDESMA","municipio":null,"cp":4516,"latitud":null,"longitud":null},{"id":23648,"nombre":"FINCA LA REALIDAD","partido":"LEDESMA","municipio":null,"cp":4516,"latitud":null,"longitud":null},{"id":23492,"nombre":"FINCA LEACH","partido":"EL CARMEN","municipio":null,"cp":4504,"latitud":null,"longitud":null},{"id":23651,"nombre":"FINCA SANTA CORNELIA","partido":"LEDESMA","municipio":null,"cp":4516,"latitud":null,"longitud":null},{"id":23654,"nombre":"FLORENCIA","partido":"LEDESMA","municipio":null,"cp":4512,"latitud":null,"longitud":null},{"id":13185,"nombre":"FRAILE PINTADO","partido":"LEDESMA","municipio":"FRAILE PINTADO","cp":4506,"latitud":"-23.9428749","longitud":"-64.8028488"},{"id":24069,"nombre":"FUNDICIONES","partido":"VALLE GRANDE","municipio":null,"cp":4513,"latitud":null,"longitud":null},{"id":23545,"nombre":"GALETA","partido":"HUMAHUACA","municipio":null,"cp":4630,"latitud":null,"longitud":null},{"id":13204,"nombre":"GENERAL MANUEL SAVIO","partido":"PALPALA","municipio":null,"cp":4612,"latitud":null,"longitud":null},{"id":23889,"nombre":"GOBERNADOR OVEJERO","partido":"SANTA BARBARA","municipio":null,"cp":4501,"latitud":null,"longitud":null},{"id":24070,"nombre":"GOBERNADOR TELLO","partido":"VALLE GRANDE","municipio":null,"cp":4513,"latitud":null,"longitud":null},{"id":23781,"nombre":"GRANADAS","partido":"RINCONADA","municipio":null,"cp":4643,"latitud":null,"longitud":null},{"id":23657,"nombre":"GUACHAN","partido":"LEDESMA","municipio":null,"cp":4512,"latitud":null,"longitud":null},{"id":13186,"nombre":"GUAYACAN","partido":"LEDESMA","municipio":null,"cp":4506,"latitud":"-23.9563999","longitud":"-64.9737473"},{"id":13216,"nombre":"GUAYATAYOC","partido":"RINCONADA","municipio":null,"cp":4643,"latitud":"-22.2721119","longitud":"-66.0408783"},{"id":23924,"nombre":"GUAYATAYOC","partido":"SANTA CATALINA","municipio":null,"cp":4653,"latitud":null,"longitud":null},{"id":16609,"nombre":"GUEMES","partido":"COCHINOCA","municipio":null,"cp":4640,"latitud":null,"longitud":null},{"id":13095,"nombre":"GUERRERO","partido":"DR MANUEL BELGRANO","municipio":null,"cp":4600,"latitud":"-24.1861828","longitud":"-65.4446313"},{"id":23661,"nombre":"HIGUERITAS","partido":"LEDESMA","municipio":null,"cp":4512,"latitud":null,"longitud":null},{"id":24026,"nombre":"HIGUERITAS","partido":"TUMBAYA","municipio":null,"cp":4618,"latitud":"-23.8440456","longitud":"-65.4212265"},{"id":16608,"nombre":"HIPOLITO YRIGOYEN EST ITURBE","partido":"HUMAHUACA","municipio":"HIPOLITO YRIGOYEN","cp":4632,"latitud":"-22.9782680","longitud":"-65.3537790"},{"id":13159,"nombre":"HORNADITAS","partido":"HUMAHUACA","municipio":null,"cp":4630,"latitud":"-23.0871900","longitud":"-65.3846500"},{"id":23495,"nombre":"HORNILLOS","partido":"EL CARMEN","municipio":null,"cp":4608,"latitud":null,"longitud":null},{"id":13277,"nombre":"HORNILLOS","partido":"SANTA CATALINA","municipio":null,"cp":4653,"latitud":"-22.0496216","longitud":"-66.0098953"},{"id":13305,"nombre":"HUACALERA","partido":"TILCARA","municipio":"HUACALERA","cp":4626,"latitud":"-23.4341640","longitud":"-65.3513340"},{"id":13322,"nombre":"HUACHICHOCANA","partido":"TUMBAYA","municipio":null,"cp":4618,"latitud":"-23.7585926","longitud":"-65.6498489"},{"id":13096,"nombre":"HUAICO CHICO","partido":"DR MANUEL BELGRANO","municipio":null,"cp":4601,"latitud":null,"longitud":null},{"id":13217,"nombre":"HUALLATAYOC","partido":"RINCONADA","municipio":null,"cp":4653,"latitud":null,"longitud":null},{"id":24027,"nombre":"HUANCAR","partido":"TUMBAYA","municipio":null,"cp":4618,"latitud":null,"longitud":null},{"id":13295,"nombre":"HUANCAR","partido":"SUSQUES","municipio":null,"cp":4641,"latitud":"-23.6016053","longitud":"-66.4133176"},{"id":13306,"nombre":"HUICHAIRA","partido":"TILCARA","municipio":null,"cp":4624,"latitud":"-23.5767954","longitud":"-65.4325760"},{"id":13160,"nombre":"HUMAHUACA","partido":"HUMAHUACA","municipio":"HUMAHUACA","cp":4630,"latitud":"-23.2118435","longitud":"-65.3505554"},{"id":24028,"nombre":"INCA HUASI","partido":"TUMBAYA","municipio":null,"cp":4618,"latitud":null,"longitud":null},{"id":23830,"nombre":"INGENIO LA ESPERANZA","partido":"SAN PEDRO","municipio":null,"cp":4503,"latitud":null,"longitud":null},{"id":13259,"nombre":"INGENIO LA ESPERANZA","partido":"SANTA BARBARA","municipio":null,"cp":4542,"latitud":null,"longitud":null},{"id":13187,"nombre":"INGENIO LEDESMA","partido":"LEDESMA","municipio":null,"cp":4512,"latitud":null,"longitud":null},{"id":13360,"nombre":"INTICANCHO","partido":"YAVI","municipio":null,"cp":4651,"latitud":null,"longitud":null},{"id":23496,"nombre":"IRIARTE","partido":"EL CARMEN","municipio":null,"cp":4608,"latitud":null,"longitud":null},{"id":13260,"nombre":"ISLA CHICA","partido":"SANTA BARBARA","municipio":null,"cp":4501,"latitud":"-24.0210648","longitud":"-64.3249512"},{"id":13261,"nombre":"ISLA GRANDE","partido":"SANTA BARBARA","municipio":null,"cp":4501,"latitud":null,"longitud":null},{"id":23392,"nombre":"ITUAICOCHICO","partido":"DR MANUEL BELGRANO","municipio":null,"cp":4601,"latitud":null,"longitud":null},{"id":23663,"nombre":"JARAMILLO","partido":"LEDESMA","municipio":null,"cp":4504,"latitud":null,"longitud":null},{"id":23394,"nombre":"JUAN GALAN","partido":"DR MANUEL BELGRANO","municipio":null,"cp":4600,"latitud":"-24.2169971","longitud":"-65.3869858"},{"id":23395,"nombre":"JUAN MANUEL DE ROSAS","partido":"DR MANUEL BELGRANO","municipio":null,"cp":4612,"latitud":null,"longitud":null},{"id":13307,"nombre":"JUELLA","partido":"TILCARA","municipio":null,"cp":4624,"latitud":"-23.5025387","longitud":"-65.4318962"},{"id":13124,"nombre":"KILOMETRO 1129","partido":"EL CARMEN","municipio":null,"cp":4608,"latitud":null,"longitud":null},{"id":13323,"nombre":"KILOMETRO 1183","partido":"TUMBAYA","municipio":null,"cp":4616,"latitud":null,"longitud":null},{"id":23547,"nombre":"KILOMETRO 1289","partido":"HUMAHUACA","municipio":null,"cp":4630,"latitud":null,"longitud":null},{"id":23549,"nombre":"KILOMETRO 1321","partido":"HUMAHUACA","municipio":null,"cp":4634,"latitud":null,"longitud":null},{"id":23955,"nombre":"KILOMETRO 1369","partido":"SUSQUES","municipio":null,"cp":4641,"latitud":null,"longitud":null},{"id":24089,"nombre":"KILOMETRO 1397","partido":"YAVI","municipio":null,"cp":4644,"latitud":null,"longitud":null},{"id":13324,"nombre":"LA AGUADITA","partido":"TUMBAYA","municipio":null,"cp":4618,"latitud":null,"longitud":null},{"id":23396,"nombre":"LA ALMONA","partido":"DR MANUEL BELGRANO","municipio":null,"cp":4600,"latitud":"-24.2607538","longitud":"-65.3957377"},{"id":13188,"nombre":"LA BAJADA","partido":"LEDESMA","municipio":null,"cp":4506,"latitud":"-23.9470500","longitud":"-64.8390400"},{"id":13309,"nombre":"LA BANDA","partido":"TILCARA","municipio":null,"cp":4624,"latitud":"-23.5392600","longitud":"-65.3863500"},{"id":23447,"nombre":"LA BANDA","partido":"COCHINOCA","municipio":null,"cp":4640,"latitud":null,"longitud":null},{"id":13231,"nombre":"LA CABA\u00d1A","partido":"SAN ANTONIO","municipio":null,"cp":4605,"latitud":null,"longitud":null},{"id":23665,"nombre":"LA CALERA","partido":"LEDESMA","municipio":null,"cp":4512,"latitud":null,"longitud":null},{"id":16658,"nombre":"LA CHINACA","partido":"YAVI","municipio":null,"cp":4561,"latitud":null,"longitud":null},{"id":13125,"nombre":"LA CIENAGA","partido":"EL CARMEN","municipio":null,"cp":4603,"latitud":null,"longitud":null},{"id":13325,"nombre":"LA CIENAGA","partido":"TUMBAYA","municipio":null,"cp":4618,"latitud":"-23.7157898","longitud":"-65.5333633"},{"id":13361,"nombre":"LA CIENAGA","partido":"YAVI","municipio":null,"cp":4650,"latitud":"-22.1273200","longitud":"-65.7067100"},{"id":13278,"nombre":"LA CRUZ","partido":"SANTA CATALINA","municipio":null,"cp":4655,"latitud":"-21.9264900","longitud":"-66.1206400"},{"id":23398,"nombre":"LA CUESTA","partido":"DR MANUEL BELGRANO","municipio":null,"cp":4600,"latitud":null,"longitud":null},{"id":13205,"nombre":"LA CUESTA","partido":"PALPALA","municipio":null,"cp":4612,"latitud":null,"longitud":null},{"id":23550,"nombre":"LA CUEVA","partido":"HUMAHUACA","municipio":null,"cp":4632,"latitud":"-22.8998874","longitud":"-65.3682542"},{"id":13240,"nombre":"LA ESPERANZA","partido":"SAN PEDRO","municipio":"LA ESPERANZA","cp":4503,"latitud":"-24.2244854","longitud":"-64.8364944"},{"id":16613,"nombre":"LA FALDA","partido":"COCHINOCA","municipio":null,"cp":4640,"latitud":null,"longitud":null},{"id":24090,"nombre":"LA INTERMEDIA","partido":"YAVI","municipio":null,"cp":4650,"latitud":"-22.4224886","longitud":"-65.7003851"},{"id":13241,"nombre":"LA MENDIETA","partido":"SAN PEDRO","municipio":"LA MENDIETA","cp":4522,"latitud":"-24.3120270","longitud":"-64.9674683"},{"id":23891,"nombre":"LA OLLADA","partido":"SANTA BARBARA","municipio":null,"cp":4501,"latitud":null,"longitud":null},{"id":23498,"nombre":"LA OLLADA","partido":"EL CARMEN","municipio":null,"cp":4603,"latitud":null,"longitud":null},{"id":13126,"nombre":"LA OVEJERIA","partido":"EL CARMEN","municipio":null,"cp":4606,"latitud":null,"longitud":null},{"id":23667,"nombre":"LA PUERTA","partido":"LEDESMA","municipio":null,"cp":4512,"latitud":null,"longitud":null},{"id":24029,"nombre":"LA PUERTA","partido":"TUMBAYA","municipio":null,"cp":4618,"latitud":null,"longitud":null},{"id":13363,"nombre":"LA QUIACA","partido":"YAVI","municipio":"LA QUIACA","cp":4650,"latitud":"-22.1024702","longitud":"-65.5980299"},{"id":23893,"nombre":"LA QUINTA","partido":"SANTA BARBARA","municipio":null,"cp":4501,"latitud":"-23.8797455","longitud":"-64.4704742"},{"id":16625,"nombre":"LA REDUCCION","partido":"LEDESMA","municipio":null,"cp":4506,"latitud":null,"longitud":null},{"id":23895,"nombre":"LA RONDA","partido":"SANTA BARBARA","municipio":null,"cp":4501,"latitud":null,"longitud":null},{"id":16634,"nombre":"LA SANGA","partido":"SAN PEDRO","municipio":null,"cp":4500,"latitud":null,"longitud":null},{"id":27646,"nombre":"LA SANGA","partido":"TILCARA","municipio":null,"cp":4622,"latitud":null,"longitud":null},{"id":13232,"nombre":"LA TOMA","partido":"SAN ANTONIO","municipio":null,"cp":4605,"latitud":"-24.3374800","longitud":"-65.3652400"},{"id":23501,"nombre":"LA UNION","partido":"EL CARMEN","municipio":null,"cp":4608,"latitud":null,"longitud":null},{"id":23896,"nombre":"LA VERTIENTE","partido":"SANTA BARBARA","municipio":null,"cp":4501,"latitud":null,"longitud":null},{"id":13162,"nombre":"LA VETA","partido":"HUMAHUACA","municipio":null,"cp":4634,"latitud":null,"longitud":null},{"id":23784,"nombre":"LA VETA","partido":"RINCONADA","municipio":null,"cp":4643,"latitud":null,"longitud":null},{"id":23899,"nombre":"LAGUNA SAN MIGUEL","partido":"SANTA BARBARA","municipio":null,"cp":4501,"latitud":null,"longitud":null},{"id":23900,"nombre":"LAGUNA TOTORILLAS","partido":"SANTA BARBARA","municipio":null,"cp":4501,"latitud":null,"longitud":null},{"id":24030,"nombre":"LAGUNAS","partido":"TUMBAYA","municipio":null,"cp":4618,"latitud":null,"longitud":null},{"id":23401,"nombre":"LAGUNAS DE YALA","partido":"DR MANUEL BELGRANO","municipio":null,"cp":4616,"latitud":null,"longitud":null},{"id":23504,"nombre":"LAGUNILLA EL CARMEN","partido":"EL CARMEN","municipio":null,"cp":4608,"latitud":null,"longitud":null},{"id":23670,"nombre":"LAGUNILLA LEDESMA","partido":"LEDESMA","municipio":null,"cp":4608,"latitud":null,"longitud":null},{"id":23785,"nombre":"LAGUNILLAS","partido":"RINCONADA","municipio":null,"cp":4640,"latitud":"-22.3184223","longitud":"-66.0805588"},{"id":23672,"nombre":"LAPACHAL LEDESMA","partido":"LEDESMA","municipio":null,"cp":4501,"latitud":null,"longitud":null},{"id":23905,"nombre":"LAPACHAL SANTA BARBARA","partido":"SANTA BARBARA","municipio":null,"cp":4501,"latitud":null,"longitud":null},{"id":13127,"nombre":"LAS CA\u00d1ADAS","partido":"EL CARMEN","municipio":null,"cp":4606,"latitud":null,"longitud":null},{"id":23403,"nombre":"LAS CAPILLAS","partido":"DR MANUEL BELGRANO","municipio":null,"cp":4600,"latitud":"-24.0805740","longitud":"-65.1344757"},{"id":13206,"nombre":"LAS CAPILLAS","partido":"PALPALA","municipio":null,"cp":4612,"latitud":null,"longitud":null},{"id":23981,"nombre":"LAS CHICAPENAS","partido":"TILCARA","municipio":null,"cp":4622,"latitud":null,"longitud":null},{"id":23404,"nombre":"LAS ESCALERAS","partido":"DR MANUEL BELGRANO","municipio":null,"cp":4600,"latitud":null,"longitud":null},{"id":13207,"nombre":"LAS ESCALERAS","partido":"PALPALA","municipio":null,"cp":4612,"latitud":"-24.1084263","longitud":"-65.1446384"},{"id":23407,"nombre":"LAS HIGUERILLAS","partido":"DR MANUEL BELGRANO","municipio":null,"cp":4600,"latitud":null,"longitud":null},{"id":23674,"nombre":"LAS HIGUERITAS","partido":"LEDESMA","municipio":null,"cp":4512,"latitud":null,"longitud":null},{"id":13128,"nombre":"LAS PAMPITAS","partido":"EL CARMEN","municipio":null,"cp":4608,"latitud":"-24.4057500","longitud":"-65.0519500"},{"id":13129,"nombre":"LAS PICHANAS","partido":"EL CARMEN","municipio":null,"cp":4606,"latitud":"-24.5780468","longitud":"-64.9629593"},{"id":13130,"nombre":"LAS PIRCAS","partido":"EL CARMEN","municipio":null,"cp":4603,"latitud":null,"longitud":null},{"id":23675,"nombre":"LAS QUINTAS","partido":"LEDESMA","municipio":null,"cp":4512,"latitud":null,"longitud":null},{"id":13131,"nombre":"LAVAYEN","partido":"EL CARMEN","municipio":null,"cp":4503,"latitud":null,"longitud":null},{"id":13262,"nombre":"LEACHS","partido":"SANTA BARBARA","municipio":null,"cp":4504,"latitud":null,"longitud":null},{"id":23676,"nombre":"LECHERIA","partido":"LEDESMA","municipio":null,"cp":4514,"latitud":null,"longitud":null},{"id":23677,"nombre":"LEDESMA","partido":"LEDESMA","municipio":null,"cp":4512,"latitud":null,"longitud":null},{"id":23408,"nombre":"LEON","partido":"DR MANUEL BELGRANO","municipio":null,"cp":4616,"latitud":"-24.0359633","longitud":"-65.4315559"},{"id":16398,"nombre":"LIBERTADOR GRAL SAN MARTIN","partido":"LEDESMA","municipio":"LIBERTADOR GENERAL SAN MARTIN","cp":4512,"latitud":"-23.8165913","longitud":"-64.7930222"},{"id":24031,"nombre":"LINDERO","partido":"TUMBAYA","municipio":null,"cp":4618,"latitud":null,"longitud":null},{"id":24032,"nombre":"LIPAN","partido":"TUMBAYA","municipio":null,"cp":4618,"latitud":null,"longitud":null},{"id":23449,"nombre":"LLAMERIA","partido":"COCHINOCA","municipio":null,"cp":4644,"latitud":null,"longitud":null},{"id":13072,"nombre":"LLULLUCHAYOC","partido":"COCHINOCA","municipio":null,"cp":4644,"latitud":null,"longitud":null},{"id":13218,"nombre":"LOMA BLANCA","partido":"RINCONADA","municipio":null,"cp":4643,"latitud":"-22.4632226","longitud":"-66.4628648"},{"id":23679,"nombre":"LOMA DEL MEDIO","partido":"LEDESMA","municipio":null,"cp":4512,"latitud":null,"longitud":null},{"id":16645,"nombre":"LOMA LARGA","partido":"VALLE GRANDE","municipio":null,"cp":4513,"latitud":null,"longitud":null},{"id":24033,"nombre":"LOMA LARGA","partido":"TUMBAYA","municipio":null,"cp":4618,"latitud":null,"longitud":null},{"id":23907,"nombre":"LOMA PELADA","partido":"SANTA BARBARA","municipio":null,"cp":4501,"latitud":null,"longitud":null},{"id":23410,"nombre":"LOS ALISOS","partido":"DR MANUEL BELGRANO","municipio":null,"cp":4600,"latitud":null,"longitud":null},{"id":13233,"nombre":"LOS ALISOS","partido":"SAN ANTONIO","municipio":null,"cp":4605,"latitud":"-24.2839396","longitud":"-65.2818272"},{"id":23681,"nombre":"LOS BA\u00d1OS TERMALES","partido":"LEDESMA","municipio":null,"cp":4516,"latitud":null,"longitud":null},{"id":16630,"nombre":"LOS BAYOS","partido":"SAN PEDRO","municipio":null,"cp":4503,"latitud":null,"longitud":null},{"id":23411,"nombre":"LOS BLANCOS","partido":"DR MANUEL BELGRANO","municipio":null,"cp":4600,"latitud":null,"longitud":null},{"id":13208,"nombre":"LOS BLANCOS","partido":"PALPALA","municipio":null,"cp":4612,"latitud":"-24.1685800","longitud":"-65.2107800"},{"id":23684,"nombre":"LOS CATRES","partido":"LEDESMA","municipio":null,"cp":4512,"latitud":null,"longitud":null},{"id":13132,"nombre":"LOS CEDROS","partido":"EL CARMEN","municipio":null,"cp":4603,"latitud":null,"longitud":null},{"id":13133,"nombre":"LOS LAPACHOS","partido":"EL CARMEN","municipio":null,"cp":4606,"latitud":"-24.4735714","longitud":"-65.0743930"},{"id":13134,"nombre":"LOS MANANTIALES","partido":"EL CARMEN","municipio":null,"cp":4606,"latitud":null,"longitud":null},{"id":23909,"nombre":"LOS MATOS","partido":"SANTA BARBARA","municipio":null,"cp":4501,"latitud":null,"longitud":null},{"id":13242,"nombre":"LOTE DON DAVID","partido":"SAN PEDRO","municipio":null,"cp":4522,"latitud":null,"longitud":null},{"id":13243,"nombre":"LOTE DON EMILIO","partido":"SAN PEDRO","municipio":null,"cp":4522,"latitud":null,"longitud":null},{"id":13244,"nombre":"LOTE EL PUESTO","partido":"SAN PEDRO","municipio":null,"cp":4503,"latitud":"-24.2000332","longitud":"-64.7851181"},{"id":16631,"nombre":"LOTE LA CIENAGA","partido":"SAN PEDRO","municipio":null,"cp":4503,"latitud":null,"longitud":null},{"id":16632,"nombre":"LOTE LA POSTA","partido":"SAN PEDRO","municipio":null,"cp":4503,"latitud":null,"longitud":null},{"id":16626,"nombre":"LOTE MAIZ NEGRO","partido":"LEDESMA","municipio":null,"cp":4506,"latitud":null,"longitud":null},{"id":13073,"nombre":"LOTE MIRAFLORES","partido":"SAN PEDRO","municipio":null,"cp":4503,"latitud":null,"longitud":null},{"id":13245,"nombre":"LOTE PALMERA","partido":"SAN PEDRO","municipio":null,"cp":4503,"latitud":null,"longitud":null},{"id":13246,"nombre":"LOTE PARAPETI","partido":"SAN PEDRO","municipio":null,"cp":4503,"latitud":null,"longitud":null},{"id":13247,"nombre":"LOTE PIEDRITAS","partido":"SAN PEDRO","municipio":null,"cp":4522,"latitud":null,"longitud":null},{"id":23686,"nombre":"LOTE PREDILIANA","partido":"LEDESMA","municipio":null,"cp":4512,"latitud":null,"longitud":null},{"id":13248,"nombre":"LOTE SAN ANTONIO","partido":"SAN PEDRO","municipio":null,"cp":4512,"latitud":null,"longitud":null},{"id":13135,"nombre":"LOTE SAN JUANCITO","partido":"EL CARMEN","municipio":null,"cp":4522,"latitud":null,"longitud":null},{"id":13263,"nombre":"LOTE SAUZAL","partido":"SANTA BARBARA","municipio":null,"cp":4522,"latitud":null,"longitud":null},{"id":23687,"nombre":"LOTE ZORA","partido":"LEDESMA","municipio":null,"cp":4504,"latitud":null,"longitud":null},{"id":13097,"nombre":"LOZANO","partido":"DR MANUEL BELGRANO","municipio":null,"cp":4616,"latitud":"-24.0773597","longitud":"-65.4047005"},{"id":16614,"nombre":"LUMARA","partido":"COCHINOCA","municipio":null,"cp":4640,"latitud":null,"longitud":null},{"id":13310,"nombre":"MAIMARA","partido":"TILCARA","municipio":"MAIMARA","cp":4622,"latitud":"-23.6146927","longitud":"-65.4106293"},{"id":23689,"nombre":"MAL PASO","partido":"LEDESMA","municipio":null,"cp":4512,"latitud":null,"longitud":null},{"id":13136,"nombre":"MAQUINISTA VERON","partido":"EL CARMEN","municipio":null,"cp":4606,"latitud":null,"longitud":null},{"id":23690,"nombre":"MARTA","partido":"LEDESMA","municipio":null,"cp":4512,"latitud":null,"longitud":null},{"id":23452,"nombre":"MAYILTE","partido":"COCHINOCA","municipio":null,"cp":4644,"latitud":null,"longitud":null},{"id":13364,"nombre":"MAYINTE","partido":"YAVI","municipio":null,"cp":4644,"latitud":null,"longitud":null},{"id":23927,"nombre":"MERCO","partido":"SANTA CATALINA","municipio":null,"cp":4655,"latitud":"-22.1001148","longitud":"-66.1689758"},{"id":23910,"nombre":"MILAN","partido":"SANTA BARBARA","municipio":null,"cp":4501,"latitud":null,"longitud":null},{"id":13209,"nombre":"MINA 9 DE OCTUBRE","partido":"PALPALA","municipio":null,"cp":4612,"latitud":"-24.2456427","longitud":"-65.0838069"},{"id":23788,"nombre":"MINA AJEDREZ","partido":"RINCONADA","municipio":null,"cp":4643,"latitud":null,"longitud":null},{"id":13365,"nombre":"MINA BELGICA","partido":"YAVI","municipio":null,"cp":4644,"latitud":"-22.3698217","longitud":"-65.6136817"},{"id":13223,"nombre":"MINA PAN DE AZUCAR","partido":"RINCONADA","municipio":null,"cp":4643,"latitud":"-22.6193300","longitud":"-66.0550500"},{"id":13219,"nombre":"MINA PIRQUITAS","partido":"RINCONADA","municipio":"MINA PIRQUITAS","cp":4643,"latitud":"-22.6869940","longitud":"-66.4564020"},{"id":13366,"nombre":"MINA PULPERA","partido":"YAVI","municipio":null,"cp":4644,"latitud":null,"longitud":null},{"id":13367,"nombre":"MINA SAN FRANCISCO","partido":"YAVI","municipio":null,"cp":4644,"latitud":null,"longitud":null},{"id":24091,"nombre":"MINA SOL DE MAYO","partido":"YAVI","municipio":null,"cp":4644,"latitud":null,"longitud":null},{"id":23929,"nombre":"MINAS AZULES","partido":"SANTA CATALINA","municipio":null,"cp":4655,"latitud":null,"longitud":null},{"id":24034,"nombre":"MINAS DE BORATO","partido":"TUMBAYA","municipio":null,"cp":4618,"latitud":null,"longitud":null},{"id":23789,"nombre":"MINIAIO","partido":"RINCONADA","municipio":null,"cp":4643,"latitud":null,"longitud":null},{"id":16615,"nombre":"MIRA FLORES","partido":"COCHINOCA","municipio":null,"cp":4640,"latitud":null,"longitud":null},{"id":13074,"nombre":"MIRAFLORES DE LA CANDELARIA","partido":"COCHINOCA","municipio":null,"cp":4640,"latitud":"-22.8300314","longitud":"-65.8735438"},{"id":23931,"nombre":"MIRES","partido":"SANTA CATALINA","municipio":null,"cp":4655,"latitud":null,"longitud":null},{"id":13163,"nombre":"MIYUYOC","partido":"HUMAHUACA","municipio":null,"cp":4632,"latitud":"-22.8497473","longitud":"-65.2971813"},{"id":23454,"nombre":"MOCORAITE","partido":"COCHINOCA","municipio":null,"cp":4644,"latitud":null,"longitud":null},{"id":23692,"nombre":"MOJON AZUCENA","partido":"LEDESMA","municipio":null,"cp":4512,"latitud":null,"longitud":null},{"id":13328,"nombre":"MOLINOS","partido":"TUMBAYA","municipio":null,"cp":4616,"latitud":null,"longitud":null},{"id":24035,"nombre":"MOLLI PUNCO","partido":"TUMBAYA","municipio":null,"cp":4618,"latitud":null,"longitud":null},{"id":23694,"nombre":"MOLULAR","partido":"LEDESMA","municipio":null,"cp":4512,"latitud":null,"longitud":null},{"id":13343,"nombre":"MOLULO","partido":"TILCARA","municipio":null,"cp":4624,"latitud":"-23.5656400","longitud":"-65.1591800"},{"id":13137,"nombre":"MONTERRICO","partido":"EL CARMEN","municipio":"MONTERRICO","cp":4608,"latitud":"-24.4421177","longitud":"-65.1622506"},{"id":23831,"nombre":"MORALITO","partido":"SAN PEDRO","municipio":null,"cp":4500,"latitud":"-24.1581860","longitud":"-64.8878098"},{"id":24037,"nombre":"MORENO CHICO","partido":"TUMBAYA","municipio":null,"cp":4618,"latitud":null,"longitud":null},{"id":24038,"nombre":"MORRITO","partido":"TUMBAYA","municipio":null,"cp":4618,"latitud":null,"longitud":null},{"id":23932,"nombre":"MORRO","partido":"SANTA CATALINA","municipio":null,"cp":4655,"latitud":null,"longitud":null},{"id":24092,"nombre":"MULLI PUNCO","partido":"YAVI","municipio":null,"cp":4650,"latitud":"-22.2230549","longitud":"-65.5622559"},{"id":13296,"nombre":"MU\u00d1AYOC","partido":"COCHINOCA","municipio":null,"cp":4641,"latitud":"-22.7029190","longitud":"-66.1286850"},{"id":23696,"nombre":"NARANJITO","partido":"LEDESMA","municipio":null,"cp":4512,"latitud":null,"longitud":null},{"id":23413,"nombre":"NAZARENO","partido":"DR MANUEL BELGRANO","municipio":null,"cp":4600,"latitud":"-22.5094930","longitud":"-65.1020200"},{"id":16646,"nombre":"NOGAL","partido":"VALLE GRANDE","municipio":null,"cp":4513,"latitud":null,"longitud":null},{"id":16647,"nombre":"NOGALES","partido":"VALLE GRANDE","municipio":null,"cp":4513,"latitud":null,"longitud":null},{"id":16648,"nombre":"NOGALITO","partido":"VALLE GRANDE","municipio":null,"cp":4513,"latitud":null,"longitud":null},{"id":13191,"nombre":"NORMENTA","partido":"LEDESMA","municipio":null,"cp":4512,"latitud":null,"longitud":null},{"id":23751,"nombre":"OBRAJE SAN JOSE","partido":"LEDESMA","municipio":null,"cp":4516,"latitud":null,"longitud":null},{"id":13344,"nombre":"OCLOYAS","partido":"DR MANUEL BELGRANO","municipio":null,"cp":4601,"latitud":"-23.9096538","longitud":"-65.1955066"},{"id":16627,"nombre":"OCULTO","partido":"LEDESMA","municipio":null,"cp":4506,"latitud":null,"longitud":null},{"id":13164,"nombre":"OCUMAZO","partido":"HUMAHUACA","municipio":null,"cp":4626,"latitud":"-23.2373700","longitud":"-65.2822300"},{"id":16628,"nombre":"OJO DE AGUA","partido":"LEDESMA","municipio":null,"cp":4506,"latitud":null,"longitud":null},{"id":23952,"nombre":"OLACAPATO","partido":"SUSQUES","municipio":null,"cp":4643,"latitud":"-24.1152806","longitud":"-66.7186509"},{"id":13297,"nombre":"OLAROZ CHICO","partido":"SUSQUES","municipio":null,"cp":4641,"latitud":"-23.3989910","longitud":"-66.7829415"},{"id":23957,"nombre":"OLAROZ GRANDE","partido":"SUSQUES","municipio":null,"cp":4641,"latitud":"-23.3202858","longitud":"-66.8376312"},{"id":13279,"nombre":"ORATORIO","partido":"SANTA CATALINA","municipio":"SANTA CATALINA","cp":4655,"latitud":"-22.0964909","longitud":"-66.1236877"},{"id":23933,"nombre":"ORNILLO","partido":"SANTA CATALINA","municipio":null,"cp":4653,"latitud":null,"longitud":null},{"id":13280,"nombre":"OROS SAN JUAN","partido":"SANTA CATALINA","municipio":null,"cp":4655,"latitud":null,"longitud":null},{"id":13221,"nombre":"OROSMAYO","partido":"RINCONADA","municipio":null,"cp":4643,"latitud":"-22.5564923","longitud":"-66.3517772"},{"id":13165,"nombre":"OVARA","partido":"HUMAHUACA","municipio":null,"cp":4630,"latitud":"-23.0951653","longitud":"-65.3984375"},{"id":13222,"nombre":"PAICONE","partido":"SANTA CATALINA","municipio":null,"cp":4643,"latitud":"-22.1956915","longitud":"-66.4201685"},{"id":23959,"nombre":"PAIRIQUE CHICO","partido":"SUSQUES","municipio":null,"cp":4643,"latitud":null,"longitud":null},{"id":23961,"nombre":"PAIRIQUE GRANDE","partido":"SUSQUES","municipio":null,"cp":4643,"latitud":null,"longitud":null},{"id":13166,"nombre":"PALCA DE APARZO","partido":"HUMAHUACA","municipio":null,"cp":4631,"latitud":"-23.1229807","longitud":"-65.1333482"},{"id":13264,"nombre":"PALMA SOLA","partido":"SANTA BARBARA","municipio":"PALMA SOLA","cp":4501,"latitud":"-23.9769056","longitud":"-64.3064244"},{"id":23697,"nombre":"PALO A PIQUE","partido":"LEDESMA","municipio":null,"cp":4512,"latitud":null,"longitud":null},{"id":13138,"nombre":"PALO BLANCO","partido":"EL CARMEN","municipio":null,"cp":4522,"latitud":null,"longitud":null},{"id":16635,"nombre":"PALO SANTO","partido":"SAN PEDRO","municipio":null,"cp":4522,"latitud":null,"longitud":null},{"id":13210,"nombre":"PALPALA","partido":"PALPALA","municipio":"PALPALA","cp":4612,"latitud":"-24.2515717","longitud":"-65.2039490"},{"id":13139,"nombre":"PAMPA BLANCA","partido":"EL CARMEN","municipio":"PAMPA BLANCA","cp":4606,"latitud":"-24.5328187","longitud":"-65.0774179"},{"id":23699,"nombre":"PAMPA LARGA","partido":"LEDESMA","municipio":null,"cp":4512,"latitud":null,"longitud":null},{"id":13140,"nombre":"PAMPA VIEJA","partido":"EL CARMEN","municipio":null,"cp":4606,"latitud":"-24.5086860","longitud":"-65.0454260"},{"id":13345,"nombre":"PAMPICHUELA","partido":"VALLE GRANDE","municipio":"PAMPICHUELA","cp":4513,"latitud":"-23.5544090","longitud":"-65.0528070"},{"id":13234,"nombre":"PA\u00d1O","partido":"SAN ANTONIO","municipio":null,"cp":4605,"latitud":null,"longitud":null},{"id":13281,"nombre":"PASAJES","partido":"SANTA CATALINA","municipio":null,"cp":4653,"latitud":null,"longitud":null},{"id":13282,"nombre":"PASTO PAMPA","partido":"SANTA CATALINA","municipio":null,"cp":4653,"latitud":null,"longitud":null},{"id":23421,"nombre":"PASTOS CHICOS","partido":"DR MANUEL BELGRANO","municipio":null,"cp":4641,"latitud":null,"longitud":null},{"id":23700,"nombre":"PAULETE","partido":"LEDESMA","municipio":null,"cp":4512,"latitud":null,"longitud":null},{"id":23702,"nombre":"PAULINA","partido":"LEDESMA","municipio":null,"cp":4512,"latitud":"-23.8459428","longitud":"-64.7401979"},{"id":23423,"nombre":"PAYO","partido":"DR MANUEL BELGRANO","municipio":null,"cp":4600,"latitud":"-24.0418377","longitud":"-65.2753143"},{"id":23935,"nombre":"PE\u00d1A COLORADA","partido":"SANTA CATALINA","municipio":null,"cp":4655,"latitud":null,"longitud":null},{"id":13167,"nombre":"PE\u00d1AS BLANCAS","partido":"HUMAHUACA","municipio":null,"cp":4632,"latitud":null,"longitud":null},{"id":13141,"nombre":"PERICO","partido":"EL CARMEN","municipio":"PERICO","cp":4608,"latitud":"-24.3829864","longitud":"-65.1143797"},{"id":23506,"nombre":"PERICO SAN JUAN","partido":"EL CARMEN","municipio":null,"cp":4603,"latitud":null,"longitud":null},{"id":16649,"nombre":"PICACHO","partido":"VALLE GRANDE","municipio":null,"cp":4513,"latitud":null,"longitud":null},{"id":23912,"nombre":"PIE DE LA CUESTA","partido":"SANTA BARBARA","municipio":null,"cp":4501,"latitud":null,"longitud":null},{"id":23703,"nombre":"PIEDRA BLANCA","partido":"LEDESMA","municipio":null,"cp":4512,"latitud":null,"longitud":null},{"id":24039,"nombre":"PIEDRA CHOTA","partido":"TUMBAYA","municipio":null,"cp":4618,"latitud":null,"longitud":null},{"id":24040,"nombre":"PIEDRAS AMONTONADAS","partido":"TUMBAYA","municipio":null,"cp":4618,"latitud":null,"longitud":null},{"id":24041,"nombre":"PIEDRAS BLANCAS","partido":"TUMBAYA","municipio":null,"cp":4618,"latitud":"-23.9794769","longitud":"-65.8055344"},{"id":16650,"nombre":"PILCOMAYO","partido":"VALLE GRANDE","municipio":null,"cp":4513,"latitud":null,"longitud":null},{"id":24071,"nombre":"PISCUNO","partido":"VALLE GRANDE","municipio":null,"cp":4651,"latitud":null,"longitud":null},{"id":13329,"nombre":"PISCUNO","partido":"TUMBAYA","municipio":null,"cp":4655,"latitud":null,"longitud":null},{"id":23553,"nombre":"PISUNGO","partido":"HUMAHUACA","municipio":null,"cp":4632,"latitud":null,"longitud":null},{"id":24042,"nombre":"PORVENIR","partido":"TUMBAYA","municipio":null,"cp":4618,"latitud":null,"longitud":null},{"id":13304,"nombre":"POSTA DE HORNILLOS","partido":"TILCARA","municipio":null,"cp":4618,"latitud":null,"longitud":null},{"id":24043,"nombre":"POSTA DE HORNILLOS","partido":"TUMBAYA","municipio":null,"cp":4622,"latitud":null,"longitud":null},{"id":23708,"nombre":"POSTA GDAPARQUE NAC CALILEGUA","partido":"LEDESMA","municipio":null,"cp":4514,"latitud":null,"longitud":null},{"id":24072,"nombre":"POTRERILLO","partido":"VALLE GRANDE","municipio":null,"cp":4631,"latitud":null,"longitud":null},{"id":16638,"nombre":"POTRERO","partido":"TUMBAYA","municipio":null,"cp":4616,"latitud":null,"longitud":null},{"id":13075,"nombre":"POTRERO","partido":"COCHINOCA","municipio":null,"cp":4640,"latitud":"-22.6604505","longitud":"-65.5427726"},{"id":23936,"nombre":"POTRERO","partido":"SANTA CATALINA","municipio":null,"cp":4653,"latitud":null,"longitud":null},{"id":23711,"nombre":"POTRERO ALEGRE","partido":"LEDESMA","municipio":null,"cp":4512,"latitud":null,"longitud":null},{"id":13076,"nombre":"POTRERO DE LA PUNA","partido":"COCHINOCA","municipio":null,"cp":4640,"latitud":null,"longitud":null},{"id":24044,"nombre":"POZO BRAVO","partido":"TUMBAYA","municipio":null,"cp":4618,"latitud":"-23.9422340","longitud":"-65.7836609"},{"id":23713,"nombre":"POZO CAVADO","partido":"LEDESMA","municipio":null,"cp":4512,"latitud":null,"longitud":null},{"id":24045,"nombre":"POZO COLORADO","partido":"TUMBAYA","municipio":null,"cp":4618,"latitud":"-23.5682011","longitud":"-65.8382568"},{"id":23507,"nombre":"POZO DE LAS AVISPAS","partido":"EL CARMEN","municipio":null,"cp":4608,"latitud":null,"longitud":null},{"id":23715,"nombre":"POZO VERDE","partido":"LEDESMA","municipio":null,"cp":4512,"latitud":null,"longitud":null},{"id":13224,"nombre":"POZUELO","partido":"RINCONADA","municipio":null,"cp":4643,"latitud":null,"longitud":null},{"id":23717,"nombre":"PREDILIANA","partido":"LEDESMA","municipio":null,"cp":4512,"latitud":null,"longitud":null},{"id":13168,"nombre":"PUCARA","partido":"HUMAHUACA","municipio":null,"cp":4624,"latitud":"-23.1992912","longitud":"-65.2047882"},{"id":16651,"nombre":"PUEBLO","partido":"VALLE GRANDE","municipio":null,"cp":4513,"latitud":null,"longitud":null},{"id":13192,"nombre":"PUEBLO LEDESMA","partido":"LEDESMA","municipio":null,"cp":4512,"latitud":"-23.8273072","longitud":"-64.7913606"},{"id":23718,"nombre":"PUEBLO NUEVO","partido":"LEDESMA","municipio":null,"cp":4512,"latitud":null,"longitud":null},{"id":24046,"nombre":"PUEBLO PLA","partido":"TUMBAYA","municipio":null,"cp":4618,"latitud":null,"longitud":null},{"id":13142,"nombre":"PUEBLO VIEJO","partido":"HUMAHUACA","municipio":null,"cp":4632,"latitud":"-22.8292796","longitud":"-65.3704529"},{"id":24047,"nombre":"PUERTA DE COLORADOS","partido":"TUMBAYA","municipio":null,"cp":4618,"latitud":"-23.5613891","longitud":"-65.6912306"},{"id":13330,"nombre":"PUERTA DE LIPAN","partido":"TUMBAYA","municipio":null,"cp":4618,"latitud":"-23.6681900","longitud":"-65.5736200"},{"id":23425,"nombre":"PUERTA DE SALAS","partido":"DR MANUEL BELGRANO","municipio":null,"cp":4612,"latitud":null,"longitud":null},{"id":24048,"nombre":"PUERTA PATACAL","partido":"TUMBAYA","municipio":null,"cp":4618,"latitud":null,"longitud":null},{"id":16616,"nombre":"PUERTA POTRERO","partido":"COCHINOCA","municipio":null,"cp":4640,"latitud":null,"longitud":null},{"id":23719,"nombre":"PUERTA VIEJA","partido":"LEDESMA","municipio":null,"cp":4512,"latitud":null,"longitud":null},{"id":24073,"nombre":"PUERTO TOLAVA","partido":"VALLE GRANDE","municipio":null,"cp":4513,"latitud":null,"longitud":null},{"id":23982,"nombre":"PUESTO","partido":"TILCARA","municipio":null,"cp":4624,"latitud":null,"longitud":null},{"id":13283,"nombre":"PUESTO CHICO","partido":"SANTA CATALINA","municipio":null,"cp":4653,"latitud":"-22.1206779","longitud":"-65.9587784"},{"id":13077,"nombre":"PUESTO DEL MARQUEZ","partido":"COCHINOCA","municipio":"PUESTO DEL MARQUEZ","cp":4644,"latitud":"-22.5351800","longitud":"-65.6988400"},{"id":13284,"nombre":"PUESTO GRANDE","partido":"SANTA CATALINA","municipio":null,"cp":4653,"latitud":"-22.0492006","longitud":"-65.9510821"},{"id":13265,"nombre":"PUESTO NUEVO","partido":"SANTA BARBARA","municipio":null,"cp":4501,"latitud":null,"longitud":null},{"id":13266,"nombre":"PUESTO VIEJO","partido":"EL CARMEN","municipio":"PUESTO VIEJO","cp":4606,"latitud":"-24.4823600","longitud":"-64.9672130"},{"id":13368,"nombre":"PUMAHUASI","partido":"YAVI","municipio":"PUMAHUASI","cp":4644,"latitud":"-22.2890580","longitud":"-65.6786770"},{"id":13331,"nombre":"PUNA DE JUJUY","partido":"TUMBAYA","municipio":null,"cp":4618,"latitud":null,"longitud":null},{"id":24049,"nombre":"PUNTA CANAL","partido":"TUMBAYA","municipio":null,"cp":4618,"latitud":null,"longitud":null},{"id":13332,"nombre":"PUNTA CORRAL","partido":"TUMBAYA","municipio":null,"cp":4618,"latitud":"-23.7172832","longitud":"-65.3873291"},{"id":23457,"nombre":"PUNTA DE AGUA","partido":"COCHINOCA","municipio":null,"cp":4644,"latitud":null,"longitud":null},{"id":23914,"nombre":"PUNTA DEL AGUA","partido":"SANTA BARBARA","municipio":null,"cp":4644,"latitud":null,"longitud":null},{"id":23983,"nombre":"PUNTA DEL CAMPO","partido":"TILCARA","municipio":null,"cp":4622,"latitud":null,"longitud":null},{"id":24050,"nombre":"PUNTAS DE COLORADOS","partido":"TUMBAYA","municipio":null,"cp":4618,"latitud":null,"longitud":null},{"id":13333,"nombre":"PURMAMARCA","partido":"TUMBAYA","municipio":"PURMAMARCA","cp":4618,"latitud":"-23.7508774","longitud":"-65.5013962"},{"id":13311,"nombre":"QUEBRADA HUASAMAYO","partido":"TILCARA","municipio":null,"cp":4624,"latitud":null,"longitud":null},{"id":23458,"nombre":"QUEBRALE\u00d1A","partido":"COCHINOCA","municipio":null,"cp":4640,"latitud":"-23.2858703","longitud":"-65.7700882"},{"id":16652,"nombre":"QUE\u00d1OAL","partido":"VALLE GRANDE","municipio":null,"cp":4513,"latitud":null,"longitud":null},{"id":23460,"nombre":"QUENTI TACO","partido":"COCHINOCA","municipio":null,"cp":4644,"latitud":null,"longitud":null},{"id":13079,"nombre":"QUERA","partido":"COCHINOCA","municipio":null,"cp":4634,"latitud":"-23.1008394","longitud":"-65.7628639"},{"id":23792,"nombre":"QUERA","partido":"RINCONADA","municipio":null,"cp":4643,"latitud":null,"longitud":null},{"id":13080,"nombre":"QUETA","partido":"COCHINOCA","municipio":null,"cp":4641,"latitud":"-22.6794700","longitud":"-65.9721200"},{"id":13081,"nombre":"QUICHAGUA","partido":"COCHINOCA","municipio":null,"cp":4641,"latitud":"-22.7770729","longitud":"-66.0258865"},{"id":23554,"nombre":"QUIMAZO","partido":"HUMAHUACA","municipio":null,"cp":4630,"latitud":null,"longitud":null},{"id":24051,"nombre":"QUISQUINE","partido":"TUMBAYA","municipio":null,"cp":4618,"latitud":null,"longitud":null},{"id":13082,"nombre":"RACHAITE","partido":"COCHINOCA","municipio":null,"cp":4641,"latitud":"-22.8483920","longitud":"-66.1615006"},{"id":23720,"nombre":"RAMADA","partido":"LEDESMA","municipio":null,"cp":4512,"latitud":null,"longitud":null},{"id":24074,"nombre":"RAMADA","partido":"VALLE GRANDE","municipio":null,"cp":4631,"latitud":null,"longitud":null},{"id":23463,"nombre":"RAMALLO","partido":"COCHINOCA","municipio":null,"cp":4640,"latitud":null,"longitud":null},{"id":23721,"nombre":"RASTROJOS","partido":"LEDESMA","municipio":null,"cp":4504,"latitud":null,"longitud":null},{"id":13267,"nombre":"REAL DE LOS TOROS","partido":"SANTA BARBARA","municipio":null,"cp":4501,"latitud":"-24.0047608","longitud":"-64.3310872"},{"id":24052,"nombre":"RECEPTORIA","partido":"TUMBAYA","municipio":null,"cp":4618,"latitud":null,"longitud":null},{"id":13369,"nombre":"REDONDA","partido":"YAVI","municipio":null,"cp":4644,"latitud":null,"longitud":null},{"id":13098,"nombre":"REYES","partido":"DR MANUEL BELGRANO","municipio":null,"cp":4600,"latitud":"-24.1618149","longitud":"-65.3808575"},{"id":13225,"nombre":"RINCONADA","partido":"RINCONADA","municipio":"RINCONADA","cp":4643,"latitud":"-22.4382381","longitud":"-66.1663437"},{"id":13083,"nombre":"RINCONADILLAS","partido":"COCHINOCA","municipio":null,"cp":4641,"latitud":"-23.2886644","longitud":"-65.9412335"},{"id":23428,"nombre":"RIO BLANCO","partido":"DR MANUEL BELGRANO","municipio":null,"cp":4601,"latitud":null,"longitud":null},{"id":23813,"nombre":"RIO BLANCO","partido":"SAN ANTONIO","municipio":null,"cp":4605,"latitud":"-24.3884800","longitud":"-65.3669100"},{"id":13370,"nombre":"RIO COLORADO","partido":"YAVI","municipio":null,"cp":4644,"latitud":null,"longitud":null},{"id":23833,"nombre":"RIO GRANDE","partido":"SAN PEDRO","municipio":null,"cp":4522,"latitud":null,"longitud":null},{"id":23555,"nombre":"RIO GRANDE","partido":"HUMAHUACA","municipio":null,"cp":4634,"latitud":"-23.3483505","longitud":"-65.6747131"},{"id":13268,"nombre":"RIO NEGRO","partido":"SANTA BARBARA","municipio":null,"cp":4504,"latitud":null,"longitud":null},{"id":23722,"nombre":"RIO SECO","partido":"LEDESMA","municipio":null,"cp":4512,"latitud":null,"longitud":null},{"id":24053,"nombre":"RIVERITO","partido":"TUMBAYA","municipio":null,"cp":4618,"latitud":null,"longitud":null},{"id":13249,"nombre":"RODEITO","partido":"SAN PEDRO","municipio":"RODEITO","cp":4500,"latitud":"-24.2714870","longitud":"-64.7677340"},{"id":24093,"nombre":"RODEO","partido":"YAVI","municipio":null,"cp":4651,"latitud":"-22.2997339","longitud":"-65.9197843"},{"id":13285,"nombre":"RODEO CHICO","partido":"SANTA CATALINA","municipio":null,"cp":4653,"latitud":"-22.2134781","longitud":"-66.0255737"},{"id":13169,"nombre":"RODERO","partido":"HUMAHUACA","municipio":null,"cp":4631,"latitud":"-23.0621288","longitud":"-65.3258281"},{"id":13170,"nombre":"RONQUE","partido":"HUMAHUACA","municipio":null,"cp":4631,"latitud":"-23.0750844","longitud":"-65.3069539"},{"id":13084,"nombre":"RONTUYOC","partido":"COCHINOCA","municipio":null,"cp":4640,"latitud":null,"longitud":null},{"id":13238,"nombre":"ROSARIO DE RIO GRANDE","partido":"SAN PEDRO","municipio":"ROSARIO DE RIO GRANDE","cp":4522,"latitud":"-24.3069100","longitud":"-64.9317810"},{"id":13085,"nombre":"RUMI CRUZ","partido":"COCHINOCA","municipio":null,"cp":4640,"latitud":"-22.7829900","longitud":"-65.5351400"},{"id":24058,"nombre":"SALA","partido":"TUMBAYA","municipio":null,"cp":4618,"latitud":null,"longitud":null},{"id":16636,"nombre":"SALADILLO LEDESMA","partido":"SAN PEDRO","municipio":null,"cp":4500,"latitud":null,"longitud":null},{"id":23729,"nombre":"SALADILLO LEDESMA","partido":"LEDESMA","municipio":null,"cp":4522,"latitud":null,"longitud":null},{"id":16637,"nombre":"SALADILLO SAN PEDRO","partido":"SAN PEDRO","municipio":null,"cp":4522,"latitud":null,"longitud":null},{"id":23803,"nombre":"SALITRE","partido":"RINCONADA","municipio":null,"cp":4643,"latitud":"-22.6554127","longitud":"-66.3959732"},{"id":23563,"nombre":"SAN ANDRES","partido":"HUMAHUACA","municipio":null,"cp":4630,"latitud":null,"longitud":null},{"id":23730,"nombre":"SAN ANTONIO","partido":"LEDESMA","municipio":null,"cp":4503,"latitud":null,"longitud":null},{"id":16653,"nombre":"SAN ANTONIO","partido":"VALLE GRANDE","municipio":null,"cp":4513,"latitud":null,"longitud":null},{"id":13235,"nombre":"SAN ANTONIO","partido":"SAN ANTONIO","municipio":"SAN ANTONIO","cp":4605,"latitud":"-24.3701267","longitud":"-65.3305664"},{"id":13334,"nombre":"SAN BERNARDO","partido":"TUMBAYA","municipio":null,"cp":4618,"latitud":"-23.8409709","longitud":"-65.2980843"},{"id":13346,"nombre":"SAN FRANCISCO","partido":"VALLE GRANDE","municipio":"SAN FRANCISCO","cp":4512,"latitud":"-23.6174660","longitud":"-64.9548610"},{"id":13286,"nombre":"SAN FRANCISCO","partido":"SANTA CATALINA","municipio":null,"cp":4655,"latitud":"-22.0009300","longitud":"-66.1741700"},{"id":13086,"nombre":"SAN FRANCISCO DE ALFARCITO","partido":"COCHINOCA","municipio":"ABDON CASTRO TOLAY","cp":4641,"latitud":"-23.3198701","longitud":"-65.9744059"},{"id":23514,"nombre":"SAN GABRIEL","partido":"EL CARMEN","municipio":null,"cp":4608,"latitud":null,"longitud":null},{"id":24059,"nombre":"SAN JAVIER","partido":"TUMBAYA","municipio":null,"cp":4618,"latitud":null,"longitud":null},{"id":13312,"nombre":"SAN JOSE","partido":"TILCARA","municipio":null,"cp":4626,"latitud":null,"longitud":null},{"id":27973,"nombre":"SAN JOSE","partido":"YAVI","municipio":"YAVI","cp":4651,"latitud":"-22.1378271","longitud":"-65.3097886"},{"id":23756,"nombre":"SAN JOSE DE LA RINCONADA","partido":"RINCONADA","municipio":null,"cp":4643,"latitud":"-22.4214592","longitud":"-66.1700516"},{"id":16617,"nombre":"SAN JOSE DE MIRAFLORES","partido":"COCHINOCA","municipio":null,"cp":4640,"latitud":"-22.8220882","longitud":"-65.8644638"},{"id":13250,"nombre":"SAN JOSE DEL BORDO","partido":"SAN PEDRO","municipio":null,"cp":4500,"latitud":null,"longitud":null},{"id":13335,"nombre":"SAN JOSE DEL CHA\u00d1I","partido":"TUMBAYA","municipio":null,"cp":4618,"latitud":null,"longitud":null},{"id":13226,"nombre":"SAN JUAN","partido":"RINCONADA","municipio":null,"cp":4643,"latitud":null,"longitud":null},{"id":23944,"nombre":"SAN JUAN","partido":"SANTA CATALINA","municipio":null,"cp":4655,"latitud":null,"longitud":null},{"id":13251,"nombre":"SAN JUAN DE DIOS","partido":"SAN PEDRO","municipio":null,"cp":4501,"latitud":"-24.4997770","longitud":"-64.7085666"},{"id":23946,"nombre":"SAN JUAN DE OROS","partido":"SANTA CATALINA","municipio":null,"cp":4655,"latitud":"-22.1928248","longitud":"-66.3492160"},{"id":13087,"nombre":"SAN JUAN DE QUILLAGUES","partido":"COCHINOCA","municipio":null,"cp":4641,"latitud":null,"longitud":null},{"id":23517,"nombre":"SAN JUANCITO","partido":"EL CARMEN","municipio":null,"cp":4608,"latitud":"-24.3831945","longitud":"-64.9958371"},{"id":13287,"nombre":"SAN LEON","partido":"SANTA CATALINA","municipio":null,"cp":4655,"latitud":"-21.8583851","longitud":"-66.2391586"},{"id":23732,"nombre":"SAN LORENZO","partido":"LEDESMA","municipio":null,"cp":4514,"latitud":null,"longitud":null},{"id":13252,"nombre":"SAN LUCAS","partido":"SAN PEDRO","municipio":null,"cp":4500,"latitud":"-24.2257554","longitud":"-64.8646057"},{"id":13347,"nombre":"SAN LUCAS","partido":"VALLE GRANDE","municipio":null,"cp":4513,"latitud":"-23.6113800","longitud":"-65.0442300"},{"id":23436,"nombre":"SAN PABLO DE REYES","partido":"DR MANUEL BELGRANO","municipio":null,"cp":4600,"latitud":"-24.1436589","longitud":"-65.4829200"},{"id":13313,"nombre":"SAN PEDRITO","partido":"TILCARA","municipio":null,"cp":4622,"latitud":null,"longitud":null},{"id":23566,"nombre":"SAN PEDRO DE IRUYA","partido":"HUMAHUACA","municipio":null,"cp":4633,"latitud":null,"longitud":null},{"id":13227,"nombre":"SAN PEDRO DE JUJUY","partido":"SAN PEDRO","municipio":"SAN PEDRO DE JUJUY","cp":4500,"latitud":"-24.2230320","longitud":"-64.8592300"},{"id":13269,"nombre":"SAN RAFAEL","partido":"SANTA BARBARA","municipio":null,"cp":4501,"latitud":"-24.0875340","longitud":"-64.3960800"},{"id":23520,"nombre":"SAN RAFAEL","partido":"EL CARMEN","municipio":null,"cp":4608,"latitud":null,"longitud":null},{"id":13171,"nombre":"SAN ROQUE","partido":"HUMAHUACA","municipio":null,"cp":4630,"latitud":"-23.2462700","longitud":"-65.3559200"},{"id":13099,"nombre":"SAN SALVADOR DE JUJUY","partido":"DR MANUEL BELGRANO","municipio":"SAN SALVADOR DE JUJUY","cp":4600,"latitud":"-24.1961918","longitud":"-65.2943573"},{"id":13143,"nombre":"SAN VICENTE","partido":"EL CARMEN","municipio":null,"cp":4608,"latitud":"-24.4293248","longitud":"-65.1843972"},{"id":13371,"nombre":"SANSANA","partido":"YAVI","municipio":null,"cp":4650,"latitud":"-22.1588800","longitud":"-65.5620300"},{"id":13348,"nombre":"SANTA ANA","partido":"VALLE GRANDE","municipio":"SANTA ANA","cp":4631,"latitud":"-23.3576610","longitud":"-64.9879230"},{"id":13088,"nombre":"SANTA ANA DE LA PUNA","partido":"COCHINOCA","municipio":null,"cp":4641,"latitud":"-23.1466006","longitud":"-66.0321033"},{"id":13349,"nombre":"SANTA BARBARA","partido":"VALLE GRANDE","municipio":null,"cp":4513,"latitud":"-23.6231000","longitud":"-65.0049800"},{"id":13288,"nombre":"SANTA CATALINA","partido":"SANTA CATALINA","municipio":"SANTA CATALINA","cp":4655,"latitud":"-21.9433165","longitud":"-66.0526821"},{"id":13270,"nombre":"SANTA CLARA","partido":"SANTA BARBARA","municipio":"SANTA CLARA","cp":4501,"latitud":"-24.3098760","longitud":"-64.6628730"},{"id":24076,"nombre":"SANTA CLARA","partido":"VALLE GRANDE","municipio":null,"cp":4513,"latitud":null,"longitud":null},{"id":23918,"nombre":"SANTA RITA","partido":"SANTA BARBARA","municipio":null,"cp":4501,"latitud":"-23.7522831","longitud":"-64.3271713"},{"id":23521,"nombre":"SANTA RITA","partido":"EL CARMEN","municipio":null,"cp":4608,"latitud":null,"longitud":null},{"id":24060,"nombre":"SANTA ROSA TUMBAYA","partido":"TUMBAYA","municipio":null,"cp":4618,"latitud":null,"longitud":null},{"id":24077,"nombre":"SANTA ROSA VALLE GRANDE","partido":"VALLE GRANDE","municipio":null,"cp":4618,"latitud":null,"longitud":null},{"id":23734,"nombre":"SANTILLO","partido":"LEDESMA","municipio":null,"cp":4512,"latitud":null,"longitud":null},{"id":13144,"nombre":"SANTO DOMINGO","partido":"EL CARMEN","municipio":null,"cp":4608,"latitud":"-24.3879102","longitud":"-65.1469951"},{"id":13089,"nombre":"SANTUARIO","partido":"COCHINOCA","municipio":null,"cp":4640,"latitud":"-22.6479702","longitud":"-65.7380753"},{"id":16639,"nombre":"SANTUYOC","partido":"TUMBAYA","municipio":null,"cp":4616,"latitud":null,"longitud":null},{"id":23735,"nombre":"SAUZAL","partido":"LEDESMA","municipio":null,"cp":4501,"latitud":null,"longitud":null},{"id":23738,"nombre":"SAUZALITO","partido":"LEDESMA","municipio":null,"cp":4512,"latitud":null,"longitud":null},{"id":13090,"nombre":"SAYATE","partido":"COCHINOCA","municipio":null,"cp":4640,"latitud":"-22.8845536","longitud":"-65.8110449"},{"id":13172,"nombre":"SENADOR PEREZ","partido":"HUMAHUACA","municipio":null,"cp":4626,"latitud":null,"longitud":null},{"id":23739,"nombre":"SEPULTURA","partido":"LEDESMA","municipio":null,"cp":4512,"latitud":null,"longitud":null},{"id":13298,"nombre":"SEY","partido":"SUSQUES","municipio":null,"cp":4411,"latitud":"-23.9383621","longitud":"-66.4911499"},{"id":16629,"nombre":"SIBERIA","partido":"LEDESMA","municipio":null,"cp":4506,"latitud":null,"longitud":null},{"id":13271,"nombre":"SIETE AGUAS","partido":"SANTA BARBARA","municipio":null,"cp":4501,"latitud":null,"longitud":null},{"id":23967,"nombre":"SIJES","partido":"SUSQUES","municipio":null,"cp":4641,"latitud":"-23.9767818","longitud":"-66.5529709"},{"id":23741,"nombre":"SOCABON","partido":"LEDESMA","municipio":null,"cp":4512,"latitud":null,"longitud":null},{"id":23742,"nombre":"SOLEDAD","partido":"LEDESMA","municipio":null,"cp":4512,"latitud":null,"longitud":null},{"id":24078,"nombre":"SOLEDAD","partido":"VALLE GRANDE","municipio":null,"cp":4631,"latitud":null,"longitud":null},{"id":23483,"nombre":"SORCUYO","partido":"COCHINOCA","municipio":null,"cp":4640,"latitud":null,"longitud":null},{"id":23969,"nombre":"SOYSOLAYTE","partido":"SUSQUES","municipio":null,"cp":4643,"latitud":null,"longitud":null},{"id":13372,"nombre":"SURIPUJIO","partido":"YAVI","municipio":null,"cp":4651,"latitud":null,"longitud":null},{"id":13299,"nombre":"SUSQUES","partido":"SUSQUES","municipio":"SUSQUES","cp":4641,"latitud":"-23.3932953","longitud":"-66.3610992"},{"id":24061,"nombre":"SUSUYACO","partido":"TUMBAYA","municipio":null,"cp":4618,"latitud":null,"longitud":null},{"id":13091,"nombre":"TABLADITAS","partido":"COCHINOCA","municipio":null,"cp":4640,"latitud":"-22.7479661","longitud":"-65.5914851"},{"id":24079,"nombre":"TABLON","partido":"VALLE GRANDE","municipio":null,"cp":4631,"latitud":null,"longitud":null},{"id":23985,"nombre":"TACTA","partido":"TILCARA","municipio":null,"cp":4622,"latitud":null,"longitud":null},{"id":13373,"nombre":"TAFNA","partido":"YAVI","municipio":null,"cp":4650,"latitud":"-22.1186730","longitud":"-65.7532550"},{"id":24062,"nombre":"TALA GRUSA","partido":"TUMBAYA","municipio":null,"cp":4618,"latitud":null,"longitud":null},{"id":16654,"nombre":"TALAR","partido":"VALLE GRANDE","municipio":null,"cp":4513,"latitud":null,"longitud":null},{"id":13092,"nombre":"TAMBILLOS","partido":"COCHINOCA","municipio":null,"cp":4641,"latitud":"-22.8895750","longitud":"-65.9630138"},{"id":23971,"nombre":"TANQUES","partido":"SUSQUES","municipio":null,"cp":4641,"latitud":"-23.1904945","longitud":"-66.5155563"},{"id":23743,"nombre":"TARIJITA","partido":"LEDESMA","municipio":null,"cp":4512,"latitud":null,"longitud":null},{"id":13173,"nombre":"TEJADAS","partido":"HUMAHUACA","municipio":null,"cp":4634,"latitud":null,"longitud":null},{"id":13100,"nombre":"TERMAS DE REYES","partido":"DR MANUEL BELGRANO","municipio":null,"cp":4600,"latitud":"-24.1703495","longitud":"-65.4892454"},{"id":23437,"nombre":"TESORERO","partido":"DR MANUEL BELGRANO","municipio":null,"cp":4600,"latitud":"-23.9482981","longitud":"-65.2984613"},{"id":13336,"nombre":"TESORERO","partido":"TUMBAYA","municipio":null,"cp":4616,"latitud":null,"longitud":null},{"id":16610,"nombre":"TEUCO","partido":"COCHINOCA","municipio":null,"cp":4641,"latitud":null,"longitud":null},{"id":13314,"nombre":"TILCARA","partido":"TILCARA","municipio":"TILCARA","cp":4624,"latitud":"-23.5769691","longitud":"-65.3925705"},{"id":13101,"nombre":"TILQUIZA","partido":"DR MANUEL BELGRANO","municipio":null,"cp":4600,"latitud":"-24.0762736","longitud":"-65.2785799"},{"id":13289,"nombre":"TIMON CRUZ","partido":"SANTA CATALINA","municipio":null,"cp":4655,"latitud":"-22.1915900","longitud":"-66.1587200"},{"id":23805,"nombre":"TIO MAYO","partido":"RINCONADA","municipio":null,"cp":4643,"latitud":null,"longitud":null},{"id":23947,"nombre":"TIO MAYO","partido":"SANTA CATALINA","municipio":null,"cp":4653,"latitud":null,"longitud":null},{"id":13337,"nombre":"TIRAXI","partido":"TUMBAYA","municipio":null,"cp":4616,"latitud":null,"longitud":null},{"id":16641,"nombre":"TIRAXI CHICO","partido":"TUMBAYA","municipio":null,"cp":4616,"latitud":null,"longitud":null},{"id":23744,"nombre":"TOBA","partido":"LEDESMA","municipio":null,"cp":4606,"latitud":null,"longitud":null},{"id":16620,"nombre":"TOBA","partido":"EL CARMEN","municipio":null,"cp":4648,"latitud":null,"longitud":null},{"id":23972,"nombre":"TOCOL","partido":"SUSQUES","municipio":null,"cp":4643,"latitud":null,"longitud":null},{"id":13290,"nombre":"TOQUERO","partido":"SANTA CATALINA","municipio":null,"cp":4653,"latitud":null,"longitud":null},{"id":23745,"nombre":"TOQUILLERA","partido":"LEDESMA","municipio":null,"cp":4512,"latitud":null,"longitud":null},{"id":24080,"nombre":"TORO MUERTO","partido":"VALLE GRANDE","municipio":null,"cp":4631,"latitud":"-23.3118610","longitud":"-64.9500275"},{"id":24063,"nombre":"TOTORITO","partido":"TUMBAYA","municipio":null,"cp":4618,"latitud":null,"longitud":null},{"id":24081,"nombre":"TRANCAS","partido":"VALLE GRANDE","municipio":null,"cp":4631,"latitud":null,"longitud":null},{"id":23747,"nombre":"TREMENTINAL","partido":"LEDESMA","municipio":null,"cp":4512,"latitud":null,"longitud":null},{"id":13174,"nombre":"TRES CRUCES","partido":"HUMAHUACA","municipio":"TRES CRUCES","cp":4634,"latitud":"-22.9267070","longitud":"-65.5978243"},{"id":13338,"nombre":"TRES MORROS","partido":"TUMBAYA","municipio":null,"cp":4618,"latitud":"-23.7084064","longitud":"-65.8371964"},{"id":24064,"nombre":"TRIUNVIRATO","partido":"TUMBAYA","municipio":null,"cp":4618,"latitud":null,"longitud":null},{"id":23748,"nombre":"TUCUMANCITO","partido":"LEDESMA","municipio":null,"cp":4512,"latitud":null,"longitud":null},{"id":23485,"nombre":"TUITE","partido":"COCHINOCA","municipio":null,"cp":4644,"latitud":null,"longitud":null},{"id":13339,"nombre":"TUMBAYA","partido":"TUMBAYA","municipio":"TUMBAYA","cp":4618,"latitud":"-23.8480377","longitud":"-65.4706726"},{"id":24065,"nombre":"TUMBAYA GRANDE","partido":"TUMBAYA","municipio":null,"cp":4618,"latitud":"-23.8307700","longitud":"-65.4899800"},{"id":13340,"nombre":"TUNALITO","partido":"TUMBAYA","municipio":null,"cp":4618,"latitud":"-23.7234300","longitud":"-65.4627200"},{"id":23973,"nombre":"TURILARI","partido":"SUSQUES","municipio":null,"cp":4641,"latitud":null,"longitud":null},{"id":16611,"nombre":"TURU TARI","partido":"COCHINOCA","municipio":null,"cp":4640,"latitud":null,"longitud":null},{"id":23974,"nombre":"TURU TARI","partido":"SUSQUES","municipio":null,"cp":4641,"latitud":null,"longitud":null},{"id":13093,"nombre":"TUSAQUILLAS","partido":"COCHINOCA","municipio":null,"cp":4641,"latitud":"-23.1709455","longitud":"-65.9732428"},{"id":13175,"nombre":"UQUIA","partido":"HUMAHUACA","municipio":null,"cp":4626,"latitud":"-23.3018065","longitud":"-65.3575618"},{"id":13350,"nombre":"VALLE COLORADO","partido":"VALLE GRANDE","municipio":null,"cp":4631,"latitud":"-23.4570103","longitud":"-64.9437441"},{"id":13351,"nombre":"VALLE GRANDE","partido":"VALLE GRANDE","municipio":"VALLE GRANDE","cp":4513,"latitud":"-23.4769110","longitud":"-64.9498529"},{"id":13176,"nombre":"VARAS","partido":"HUMAHUACA","municipio":null,"cp":4631,"latitud":"-23.1019463","longitud":"-65.1128777"},{"id":23525,"nombre":"VENECIAS ARGENTINAS","partido":"EL CARMEN","municipio":null,"cp":4608,"latitud":null,"longitud":null},{"id":13177,"nombre":"VETA MINA AGUILAR","partido":"HUMAHUACA","municipio":null,"cp":4634,"latitud":null,"longitud":null},{"id":23569,"nombre":"VICU\u00d1AYOC","partido":"HUMAHUACA","municipio":null,"cp":4634,"latitud":null,"longitud":null},{"id":23526,"nombre":"VILLA ARGENTINA","partido":"EL CARMEN","municipio":null,"cp":4608,"latitud":null,"longitud":null},{"id":13103,"nombre":"VILLA CIUDAD DE NIEVA","partido":"DR MANUEL BELGRANO","municipio":null,"cp":4600,"latitud":null,"longitud":null},{"id":13293,"nombre":"VILLA CORANZULI","partido":"RINCONADA","municipio":null,"cp":4643,"latitud":null,"longitud":null},{"id":13315,"nombre":"VILLA DEL PERCHEL","partido":"TILCARA","municipio":null,"cp":4626,"latitud":null,"longitud":null},{"id":13105,"nombre":"VILLA GORRITI","partido":"DR MANUEL BELGRANO","municipio":null,"cp":4600,"latitud":null,"longitud":null},{"id":23426,"nombre":"VILLA JARDIN DE REYES","partido":"DR MANUEL BELGRANO","municipio":null,"cp":4600,"latitud":null,"longitud":null},{"id":13272,"nombre":"VINALITO","partido":"SANTA BARBARA","municipio":"VINALITO","cp":4518,"latitud":"-23.6678300","longitud":"-64.4138300"},{"id":24082,"nombre":"VIZACACHAL","partido":"VALLE GRANDE","municipio":null,"cp":4631,"latitud":null,"longitud":null},{"id":13341,"nombre":"VOLCAN","partido":"TUMBAYA","municipio":"VOLCAN","cp":4616,"latitud":"-23.9201298","longitud":"-65.4649658"},{"id":23571,"nombre":"VOLCAN HIGUERA","partido":"HUMAHUACA","municipio":null,"cp":4633,"latitud":"-22.9040880","longitud":"-65.0523450"},{"id":23573,"nombre":"YACORAITE","partido":"HUMAHUACA","municipio":null,"cp":4634,"latitud":null,"longitud":null},{"id":13108,"nombre":"YALA","partido":"DR MANUEL BELGRANO","municipio":"YALA","cp":4616,"latitud":"-24.1168461","longitud":"-65.4055481"},{"id":13352,"nombre":"YALA DE MONTE CARMELO","partido":"TILCARA","municipio":null,"cp":4624,"latitud":"-23.4364323","longitud":"-65.1846750"},{"id":13375,"nombre":"YAVI","partido":"YAVI","municipio":"YAVI","cp":4651,"latitud":"-22.1291656","longitud":"-65.4617233"},{"id":13376,"nombre":"YAVI CHICO","partido":"YAVI","municipio":null,"cp":4644,"latitud":"-22.0909984","longitud":"-65.4650631"},{"id":23749,"nombre":"YERBA BUENA LEDESMA","partido":"LEDESMA","municipio":null,"cp":4622,"latitud":null,"longitud":null},{"id":23986,"nombre":"YERBA BUENA TILCARA","partido":"TILCARA","municipio":null,"cp":4622,"latitud":null,"longitud":null},{"id":13291,"nombre":"YOSCABA","partido":"SANTA CATALINA","municipio":null,"cp":4653,"latitud":"-22.1645844","longitud":"-65.9833313"},{"id":13194,"nombre":"YUTO","partido":"LEDESMA","municipio":"YUTO","cp":4518,"latitud":"-23.6439610","longitud":"-64.4720764"},{"id":23438,"nombre":"ZAPLA","partido":"PALPALA","municipio":null,"cp":4612,"latitud":null,"longitud":null}]}