{"iso_31662":"AR-F","provincia":"La Rioja","localidades":[{"id":14103,"nombre":"ABRA VERDE","partido":"ROSARIO VERA PE\u00d1ALOZA","municipio":null,"cp":5470,"latitud":"-31.3835964","longitud":"-66.6269531"},{"id":13891,"nombre":"AGUA BLANCA","partido":"CASTRO BARROS","municipio":"CASTRO BARROS","cp":5301,"latitud":"-28.9669018","longitud":"-67.0184326"},{"id":14104,"nombre":"AGUA BLANCA","partido":"ROSARIO VERA PE\u00d1ALOZA","municipio":null,"cp":5471,"latitud":"-31.7035573","longitud":"-66.2855435"},{"id":14043,"nombre":"AGUA COLORADA","partido":"GENERAL OCAMPO","municipio":null,"cp":5275,"latitud":"-30.8782578","longitud":"-66.1800537"},{"id":13986,"nombre":"AGUA COLORADA","partido":"GENERAL BELGRANO","municipio":null,"cp":5383,"latitud":"-30.5572281","longitud":"-66.1607285"},{"id":14105,"nombre":"AGUA DE LA PIEDRA","partido":"ROSARIO VERA PE\u00d1ALOZA","municipio":null,"cp":5475,"latitud":"-31.2554490","longitud":"-66.3909596"},{"id":14106,"nombre":"AGUA DE PIEDRA","partido":"ROSARIO VERA PE\u00d1ALOZA","municipio":null,"cp":5470,"latitud":null,"longitud":null},{"id":13892,"nombre":"AGUADA","partido":"CASTRO BARROS","municipio":null,"cp":5301,"latitud":null,"longitud":null},{"id":14010,"nombre":"AGUADITA","partido":"GENERAL JUAN FACUNDO QUIROGA","municipio":null,"cp":5385,"latitud":null,"longitud":null},{"id":14077,"nombre":"AGUAYO","partido":"GENERAL SAN MARTIN","municipio":null,"cp":5473,"latitud":"-31.6922261","longitud":"-65.8860390"},{"id":13928,"nombre":"AICU\u00d1A","partido":"CORONEL FELIPE VARELA","municipio":null,"cp":5361,"latitud":"-29.4772471","longitud":"-67.7729134"},{"id":13831,"nombre":"AIMOGASTA","partido":"ARAUCO","municipio":"ARAUCO","cp":5310,"latitud":"-28.5604229","longitud":"-66.8074951"},{"id":13971,"nombre":"ALCAZAR","partido":"GENERAL ANGEL VICENTE PE\u00d1ALOZA","municipio":null,"cp":5385,"latitud":"-30.3645856","longitud":"-66.5470485"},{"id":20697,"nombre":"ALGARROBO GRANDE","partido":"GENERAL SAN MARTIN","municipio":null,"cp":5473,"latitud":"-31.7801876","longitud":"-65.8924713"},{"id":14145,"nombre":"ALPASINCHE","partido":"SAN BLAS DE LOS SAUCES","municipio":null,"cp":5325,"latitud":"-28.3536422","longitud":"-67.0804334"},{"id":14044,"nombre":"ALTILLO DEL MEDIO","partido":"GENERAL OCAMPO","municipio":null,"cp":5274,"latitud":null,"longitud":null},{"id":14107,"nombre":"ALTO BAYO","partido":"ROSARIO VERA PE\u00d1ALOZA","municipio":null,"cp":5470,"latitud":"-31.5781378","longitud":"-66.5086632"},{"id":13947,"nombre":"ALTO CARRIZAL","partido":"FAMATINA","municipio":null,"cp":5361,"latitud":"-28.8736691","longitud":"-67.5689979"},{"id":14173,"nombre":"ALTO JAGUEL","partido":"VINCHINA","municipio":null,"cp":5359,"latitud":"-28.6395836","longitud":"-68.4128876"},{"id":14097,"nombre":"AMANA","partido":"INDEPENDENCIA","municipio":null,"cp":5386,"latitud":"-30.0611120","longitud":"-67.5084951"},{"id":14045,"nombre":"AMBIL","partido":"GENERAL OCAMPO","municipio":null,"cp":5475,"latitud":"-31.1413359","longitud":"-66.3603819"},{"id":13844,"nombre":"AMILGANCHO","partido":"CAPITAL","municipio":null,"cp":5300,"latitud":null,"longitud":null},{"id":13893,"nombre":"AMINGA","partido":"CASTRO BARROS","municipio":"CASTRO BARROS","cp":5301,"latitud":"-28.8353672","longitud":"-66.9178696"},{"id":20322,"nombre":"AMPATA","partido":"CAPITAL","municipio":null,"cp":5300,"latitud":"-29.7251968","longitud":"-66.6060867"},{"id":14146,"nombre":"AMUSCHINA","partido":"SAN BLAS DE LOS SAUCES","municipio":null,"cp":5329,"latitud":"-28.5720804","longitud":"-67.1801863"},{"id":13845,"nombre":"ANCHICO","partido":"CAPITAL","municipio":null,"cp":5301,"latitud":"-29.5764474","longitud":"-66.4358754"},{"id":21844,"nombre":"ANCHUMBIL","partido":"CORONEL FELIPE VARELA","municipio":null,"cp":5361,"latitud":"-29.2807026","longitud":"-68.1556702"},{"id":14147,"nombre":"ANDOLUCAS","partido":"SAN BLAS DE LOS SAUCES","municipio":null,"cp":5329,"latitud":"-28.5555816","longitud":"-67.1592837"},{"id":13909,"nombre":"ANGUINAN","partido":"CHILECITO","municipio":"CHILECITO","cp":5363,"latitud":"-29.1977558","longitud":"-67.4506226"},{"id":13948,"nombre":"ANGULOS","partido":"FAMATINA","municipio":null,"cp":5361,"latitud":"-28.6595753","longitud":"-67.6529606"},{"id":13894,"nombre":"ANILLACO","partido":"CASTRO BARROS","municipio":"CASTRO BARROS","cp":5301,"latitud":"-28.8210812","longitud":"-66.9482727"},{"id":13895,"nombre":"ANJULLON","partido":"CASTRO BARROS","municipio":"CASTRO BARROS","cp":5303,"latitud":"-28.7189846","longitud":"-66.9300537"},{"id":13949,"nombre":"ANTINACO","partido":"FAMATINA","municipio":"FAMATINA","cp":5361,"latitud":"-28.8226299","longitud":"-67.3029480"},{"id":13832,"nombre":"ARAUCO","partido":"ARAUCO","municipio":"ARAUCO","cp":5311,"latitud":"-28.5553800","longitud":"-66.8013860"},{"id":14011,"nombre":"ATILES","partido":"GENERAL JUAN FACUNDO QUIROGA","municipio":"GENERAL JUAN F QUIROGA","cp":5385,"latitud":"-30.7561684","longitud":"-66.6628342"},{"id":20716,"nombre":"BAJO CORRAL DE ISAAC","partido":"GENERAL SAN MARTIN","municipio":null,"cp":5473,"latitud":null,"longitud":null},{"id":20804,"nombre":"BAJO DE GALLO","partido":"INDEPENDENCIA","municipio":null,"cp":5386,"latitud":null,"longitud":null},{"id":13987,"nombre":"BAJO GRANDE","partido":"GENERAL BELGRANO","municipio":null,"cp":5383,"latitud":null,"longitud":null},{"id":13846,"nombre":"BAJO HONDO","partido":"CAPITAL","municipio":null,"cp":5300,"latitud":"-29.7781020","longitud":"-66.5903395"},{"id":20699,"nombre":"BAJO HONDO","partido":"GENERAL SAN MARTIN","municipio":null,"cp":5473,"latitud":"-31.6837137","longitud":"-66.0114637"},{"id":14174,"nombre":"BAJO JAGUEL","partido":"VINCHINA","municipio":null,"cp":5359,"latitud":null,"longitud":null},{"id":20700,"nombre":"BALDE DEL QUEBRACHO","partido":"GENERAL SAN MARTIN","municipio":null,"cp":5473,"latitud":null,"longitud":null},{"id":20774,"nombre":"BALDE SALADO","partido":"GENERAL OCAMPO","municipio":null,"cp":5274,"latitud":"-31.1941433","longitud":"-65.8672409"},{"id":13988,"nombre":"BALDE SALADO","partido":"GENERAL BELGRANO","municipio":null,"cp":5383,"latitud":null,"longitud":null},{"id":20825,"nombre":"BALDE SAN ISIDRO","partido":"INDEPENDENCIA","municipio":null,"cp":5386,"latitud":"-30.3019085","longitud":"-67.4442520"},{"id":13989,"nombre":"BALDES DE PACHECO","partido":"GENERAL BELGRANO","municipio":null,"cp":5276,"latitud":"-30.6642933","longitud":"-66.0867844"},{"id":13833,"nombre":"BA\u00d1ADOS DEL PANTANO","partido":"ARAUCO","municipio":"ARAUCO","cp":5310,"latitud":"-28.3721237","longitud":"-66.8252029"},{"id":13929,"nombre":"BANDA FLORIDA","partido":"CORONEL FELIPE VARELA","municipio":"CORONEL FELIPE VARELA","cp":5351,"latitud":"-29.3032950","longitud":"-68.2439876"},{"id":14108,"nombre":"BARRANQUITAS","partido":"ROSARIO VERA PE\u00d1ALOZA","municipio":null,"cp":5474,"latitud":null,"longitud":null},{"id":13950,"nombre":"BARRIO DE GALLI","partido":"FAMATINA","municipio":"FAMATINA","cp":5361,"latitud":"-28.9015462","longitud":"-67.5409052"},{"id":20912,"nombre":"BAYO MUERTO","partido":"ROSARIO VERA PE\u00d1ALOZA","municipio":null,"cp":5470,"latitud":null,"longitud":null},{"id":13847,"nombre":"BAZAN","partido":"CAPITAL","municipio":null,"cp":5300,"latitud":"-29.1688595","longitud":"-66.6635056"},{"id":13967,"nombre":"BELLA VISTA","partido":"CHAMICAL","municipio":null,"cp":5381,"latitud":"-30.5052412","longitud":"-66.2597094"},{"id":20984,"nombre":"BOCA DE LA QUEBRADA","partido":"VINCHINA","municipio":null,"cp":5359,"latitud":"-28.5085144","longitud":"-68.5080414"},{"id":20968,"nombre":"BUENA VISTA","partido":"VINCHINA","municipio":null,"cp":5359,"latitud":null,"longitud":null},{"id":13910,"nombre":"CACHIYUYAL","partido":"CHILECITO","municipio":null,"cp":5367,"latitud":null,"longitud":null},{"id":13843,"nombre":"CAMPANAS","partido":"FAMATINA","municipio":"FAMATINA","cp":5361,"latitud":"-28.5521202","longitud":"-67.6303329"},{"id":13848,"nombre":"CAMPO TRES POZOS","partido":"CAPITAL","municipio":null,"cp":5301,"latitud":null,"longitud":null},{"id":14109,"nombre":"CA\u00d1ADA HONDA","partido":"ROSARIO VERA PE\u00d1ALOZA","municipio":null,"cp":5470,"latitud":null,"longitud":null},{"id":14078,"nombre":"CA\u00d1ADA VERDE","partido":"GENERAL SAN MARTIN","municipio":null,"cp":5471,"latitud":null,"longitud":null},{"id":20954,"nombre":"CAPIHUAS","partido":"SAN BLAS DE LOS SAUCES","municipio":null,"cp":5327,"latitud":null,"longitud":null},{"id":20323,"nombre":"CARRIZAL","partido":"CAPITAL","municipio":null,"cp":5306,"latitud":"-28.9950085","longitud":"-66.6265030"},{"id":27650,"nombre":"CARRIZAL","partido":"FAMATINA","municipio":null,"cp":5361,"latitud":"-28.8795090","longitud":"-67.5691147"},{"id":20324,"nombre":"CARRIZAL ESTACION FCGB","partido":"CAPITAL","municipio":null,"cp":5300,"latitud":null,"longitud":null},{"id":13952,"nombre":"CARRIZALILLO","partido":"FAMATINA","municipio":null,"cp":5361,"latitud":null,"longitud":null},{"id":20588,"nombre":"CARRIZALILLO","partido":"GENERAL JUAN FACUNDO QUIROGA","municipio":null,"cp":5385,"latitud":null,"longitud":null},{"id":14175,"nombre":"CASA PINTADA","partido":"VINCHINA","municipio":null,"cp":5359,"latitud":"-28.3813839","longitud":"-68.0025635"},{"id":20589,"nombre":"CASAGATE","partido":"GENERAL JUAN FACUNDO QUIROGA","municipio":null,"cp":5385,"latitud":null,"longitud":null},{"id":14012,"nombre":"CASANGATE","partido":"GENERAL JUAN FACUNDO QUIROGA","municipio":null,"cp":5385,"latitud":"-30.7678874","longitud":"-66.4955443"},{"id":14110,"nombre":"CASAS VIEJAS","partido":"ROSARIO VERA PE\u00d1ALOZA","municipio":null,"cp":5471,"latitud":"-31.0951990","longitud":"-66.5095957"},{"id":15672,"nombre":"CASTRO BARROS","partido":"GENERAL BELGRANO","municipio":"GENERAL BELGRANO","cp":5276,"latitud":"-30.5805705","longitud":"-65.7286166"},{"id":13911,"nombre":"CATINZACO","partido":"CHILECITO","municipio":null,"cp":5374,"latitud":"-29.6487598","longitud":"-67.3922043"},{"id":13912,"nombre":"CATINZACO EMBARCADERO FCGB","partido":"CHILECITO","municipio":null,"cp":5374,"latitud":null,"longitud":null},{"id":14046,"nombre":"CATUNA","partido":"GENERAL OCAMPO","municipio":null,"cp":5275,"latitud":null,"longitud":null},{"id":13849,"nombre":"CEBOLLAR","partido":"CAPITAL","municipio":null,"cp":5300,"latitud":"-29.0902724","longitud":"-66.5686474"},{"id":20955,"nombre":"CERRO NEGRO","partido":"SAN BLAS DE LOS SAUCES","municipio":null,"cp":5327,"latitud":null,"longitud":null},{"id":14008,"nombre":"CHAMICAL","partido":"CHAMICAL","municipio":"CHAMICAL","cp":5380,"latitud":"-30.3609810","longitud":"-66.3125687"},{"id":14047,"nombre":"CHA\u00d1AR","partido":"GENERAL BELGRANO","municipio":"GENERAL BELGRANO","cp":5276,"latitud":"-30.5415554","longitud":"-65.9581422"},{"id":20665,"nombre":"CHA\u00d1ARMUYO","partido":"FAMATINA","municipio":null,"cp":5361,"latitud":"-28.6123449","longitud":"-67.5874723"},{"id":14148,"nombre":"CHAUPIHUASI","partido":"SAN BLAS DE LOS SAUCES","municipio":null,"cp":5327,"latitud":"-28.3536422","longitud":"-67.0804334"},{"id":20913,"nombre":"CHELCOS","partido":"ROSARIO VERA PE\u00d1ALOZA","municipio":null,"cp":5475,"latitud":"-31.2180862","longitud":"-66.3900787"},{"id":14111,"nombre":"CHEPES","partido":"ROSARIO VERA PE\u00d1ALOZA","municipio":"ROSARIO VERA PE\u00d1ALOZA","cp":5470,"latitud":"-31.3375778","longitud":"-66.5925751"},{"id":20916,"nombre":"CHEPES VIEJOS","partido":"ROSARIO VERA PE\u00d1ALOZA","municipio":null,"cp":5470,"latitud":null,"longitud":null},{"id":13973,"nombre":"CHILA","partido":"GENERAL ANGEL VICENTE PE\u00d1ALOZA","municipio":"GENERAL ANGEL V PE\u00d1ALOZA","cp":5385,"latitud":"-30.4578590","longitud":"-66.5414734"},{"id":13913,"nombre":"CHILECITO","partido":"CHILECITO","municipio":"CHILECITO","cp":5360,"latitud":"-29.1615944","longitud":"-67.4951553"},{"id":14013,"nombre":"CHIMENEA","partido":"GENERAL JUAN FACUNDO QUIROGA","municipio":null,"cp":5385,"latitud":"-30.6853275","longitud":"-66.3842316"},{"id":13901,"nombre":"CHULO","partido":"CHAMICAL","municipio":null,"cp":5380,"latitud":"-30.4056056","longitud":"-66.2623598"},{"id":20325,"nombre":"CHUMBICHA","partido":"CAPITAL","municipio":null,"cp":5300,"latitud":null,"longitud":null},{"id":13896,"nombre":"CHUQUIS","partido":"CASTRO BARROS","municipio":"CASTRO BARROS","cp":5301,"latitud":"-28.8842659","longitud":"-66.9814453"},{"id":13990,"nombre":"CISCO","partido":"GENERAL BELGRANO","municipio":null,"cp":5383,"latitud":null,"longitud":null},{"id":13974,"nombre":"COLONIA ALFREDO","partido":"GENERAL ANGEL VICENTE PE\u00d1ALOZA","municipio":null,"cp":5380,"latitud":null,"longitud":null},{"id":14048,"nombre":"COLONIA ORTIZ DE OCAMPO","partido":"GENERAL OCAMPO","municipio":null,"cp":5275,"latitud":"-30.9752909","longitud":"-66.1953884"},{"id":14049,"nombre":"COMANDANTE LEAL","partido":"GENERAL OCAMPO","municipio":null,"cp":5272,"latitud":null,"longitud":null},{"id":20956,"nombre":"CORDOBITA","partido":"SAN BLAS DE LOS SAUCES","municipio":null,"cp":5327,"latitud":null,"longitud":null},{"id":14079,"nombre":"CORRAL DE ISAAC","partido":"GENERAL SAN MARTIN","municipio":null,"cp":5471,"latitud":"-31.9401060","longitud":"-66.3921263"},{"id":14080,"nombre":"CORTADERAS","partido":"GENERAL BELGRANO","municipio":null,"cp":5381,"latitud":"-30.5484074","longitud":"-66.2368081"},{"id":20701,"nombre":"CORTADERAS EMBARCADERO FCGB","partido":"GENERAL SAN MARTIN","municipio":null,"cp":5474,"latitud":null,"longitud":null},{"id":20775,"nombre":"CUATRO ESQUINAS","partido":"GENERAL OCAMPO","municipio":null,"cp":5274,"latitud":null,"longitud":null},{"id":14081,"nombre":"CUATRO ESQUINAS","partido":"GENERAL SAN MARTIN","municipio":null,"cp":5473,"latitud":"-31.8043865","longitud":"-65.8681601"},{"id":20809,"nombre":"CUEVA DEL CHACHO","partido":"INDEPENDENCIA","municipio":null,"cp":5386,"latitud":null,"longitud":null},{"id":14149,"nombre":"CUIPAN","partido":"SAN BLAS DE LOS SAUCES","municipio":null,"cp":5329,"latitud":"-28.4517975","longitud":"-67.1178979"},{"id":14112,"nombre":"DESIDERIO TELLO","partido":"ROSARIO VERA PE\u00d1ALOZA","municipio":"ROSARIO VERA PE\u00d1ALOZA","cp":5474,"latitud":"-31.2116203","longitud":"-66.3154373"},{"id":14050,"nombre":"DIQUE DE ANZULON","partido":"GENERAL OCAMPO","municipio":null,"cp":5275,"latitud":null,"longitud":null},{"id":14051,"nombre":"DIQUE LOS SAUCES","partido":"GENERAL OCAMPO","municipio":null,"cp":5274,"latitud":null,"longitud":null},{"id":20977,"nombre":"DIQUE LOS SAUCES","partido":"SANAGASTA","municipio":null,"cp":5300,"latitud":null,"longitud":null},{"id":14176,"nombre":"DISTRITO PUEBLO","partido":"VINCHINA","municipio":"VINCHINA","cp":5359,"latitud":"-28.7737274","longitud":"-68.2074280"},{"id":20702,"nombre":"EL ABRA","partido":"GENERAL SAN MARTIN","municipio":null,"cp":5473,"latitud":"-31.4886627","longitud":"-66.2641489"},{"id":14037,"nombre":"EL ALTILLO","partido":"GENERAL LAMADRID","municipio":null,"cp":5355,"latitud":null,"longitud":null},{"id":20744,"nombre":"EL ALTO","partido":"GENERAL BELGRANO","municipio":null,"cp":5383,"latitud":null,"longitud":null},{"id":14113,"nombre":"EL ALTO","partido":"ROSARIO VERA PE\u00d1ALOZA","municipio":null,"cp":5470,"latitud":null,"longitud":null},{"id":14082,"nombre":"EL BALDE","partido":"GENERAL SAN MARTIN","municipio":null,"cp":5471,"latitud":null,"longitud":null},{"id":14014,"nombre":"EL BARRANCO","partido":"GENERAL JUAN FACUNDO QUIROGA","municipio":null,"cp":5385,"latitud":null,"longitud":null},{"id":14114,"nombre":"EL BARREAL","partido":"ROSARIO VERA PE\u00d1ALOZA","municipio":null,"cp":5470,"latitud":null,"longitud":null},{"id":20326,"nombre":"EL BARRIAL","partido":"CAPITAL","municipio":null,"cp":5301,"latitud":null,"longitud":null},{"id":20917,"nombre":"EL BARRIAL","partido":"ROSARIO VERA PE\u00d1ALOZA","municipio":null,"cp":5471,"latitud":"-31.2594623","longitud":"-66.7162516"},{"id":13850,"nombre":"EL BAYITO","partido":"CAPITAL","municipio":null,"cp":5301,"latitud":null,"longitud":null},{"id":20745,"nombre":"EL BORDO","partido":"GENERAL BELGRANO","municipio":null,"cp":5276,"latitud":"-30.5901413","longitud":"-65.9836884"},{"id":14083,"nombre":"EL CALDEN","partido":"GENERAL SAN MARTIN","municipio":null,"cp":5717,"latitud":"-31.8957436","longitud":"-65.8545970"},{"id":20328,"nombre":"EL CANTADERO","partido":"CAPITAL","municipio":null,"cp":5300,"latitud":"-29.1812404","longitud":"-66.8049842"},{"id":14052,"nombre":"EL CARRIZAL","partido":"GENERAL OCAMPO","municipio":null,"cp":5475,"latitud":null,"longitud":null},{"id":20590,"nombre":"EL CARRIZAL","partido":"GENERAL JUAN FACUNDO QUIROGA","municipio":null,"cp":5475,"latitud":null,"longitud":null},{"id":16586,"nombre":"EL CARRIZAL TAMA","partido":"GENERAL ANGEL VICENTE PE\u00d1ALOZA","municipio":null,"cp":5385,"latitud":"-30.5073630","longitud":"-66.5270500"},{"id":14084,"nombre":"EL CATORCE","partido":"GENERAL SAN MARTIN","municipio":null,"cp":5474,"latitud":null,"longitud":null},{"id":14053,"nombre":"EL CERCO","partido":"GENERAL OCAMPO","municipio":null,"cp":5475,"latitud":"-31.1051026","longitud":"-66.4309287"},{"id":20811,"nombre":"EL CHIFLON","partido":"INDEPENDENCIA","municipio":null,"cp":5386,"latitud":"-30.2135315","longitud":"-67.5517426"},{"id":13954,"nombre":"EL CHOCOY","partido":"FAMATINA","municipio":null,"cp":5361,"latitud":null,"longitud":null},{"id":21845,"nombre":"EL CHUSCHIN","partido":"CORONEL FELIPE VARELA","municipio":null,"cp":5361,"latitud":"-29.2746220","longitud":"-67.8885117"},{"id":13991,"nombre":"EL CHUSCO","partido":"GENERAL BELGRANO","municipio":null,"cp":5276,"latitud":null,"longitud":null},{"id":14054,"nombre":"EL CIENAGO","partido":"GENERAL OCAMPO","municipio":null,"cp":5275,"latitud":null,"longitud":null},{"id":14115,"nombre":"EL CINCUENTA","partido":"ROSARIO VERA PE\u00d1ALOZA","municipio":null,"cp":5470,"latitud":null,"longitud":null},{"id":14038,"nombre":"EL CONDADO","partido":"GENERAL LAMADRID","municipio":null,"cp":5355,"latitud":"-28.9762001","longitud":"-68.2148895"},{"id":20776,"nombre":"EL CONSUELO","partido":"GENERAL OCAMPO","municipio":null,"cp":5274,"latitud":null,"longitud":null},{"id":13946,"nombre":"EL DIVISADERO","partido":"ROSARIO VERA PE\u00d1ALOZA","municipio":null,"cp":5470,"latitud":"-31.7265517","longitud":"-66.7576049"},{"id":13851,"nombre":"EL DURAZNILLO","partido":"CAPITAL","municipio":null,"cp":5300,"latitud":"-29.2624378","longitud":"-66.8262558"},{"id":13852,"nombre":"EL ESCONDIDO","partido":"CAPITAL","municipio":null,"cp":5301,"latitud":null,"longitud":null},{"id":27823,"nombre":"EL ESTANQUITO","partido":"CAPITAL","municipio":null,"cp":5301,"latitud":"-29.4194107","longitud":"-66.5580673"},{"id":14055,"nombre":"EL FRAILE","partido":"GENERAL OCAMPO","municipio":null,"cp":5274,"latitud":"-31.0622406","longitud":"-65.9408378"},{"id":13930,"nombre":"EL FUERTE","partido":"CORONEL FELIPE VARELA","municipio":null,"cp":5351,"latitud":"-29.4117584","longitud":"-68.2428360"},{"id":20681,"nombre":"EL GARABATO","partido":"CHAMICAL","municipio":null,"cp":5380,"latitud":"-30.2987026","longitud":"-66.1323827"},{"id":14167,"nombre":"EL HORNO","partido":"VINCHINA","municipio":null,"cp":5357,"latitud":"-28.7713304","longitud":"-68.2087417"},{"id":14161,"nombre":"EL HUACO","partido":"SANAGASTA","municipio":null,"cp":5301,"latitud":null,"longitud":null},{"id":13955,"nombre":"EL JUMEAL","partido":"FAMATINA","municipio":null,"cp":5365,"latitud":"-28.9468150","longitud":"-67.5183082"},{"id":20777,"nombre":"EL MEDANITO","partido":"GENERAL OCAMPO","municipio":null,"cp":5272,"latitud":null,"longitud":null},{"id":20331,"nombre":"EL MEDANO","partido":"CAPITAL","municipio":null,"cp":5263,"latitud":null,"longitud":null},{"id":14009,"nombre":"EL MOLLAR","partido":"CHAMICAL","municipio":null,"cp":5381,"latitud":"-30.4725632","longitud":"-66.2802481"},{"id":13931,"nombre":"EL MOLLE","partido":"CORONEL FELIPE VARELA","municipio":null,"cp":5350,"latitud":"-29.2887004","longitud":"-68.2301826"},{"id":13956,"nombre":"EL PEDREGAL","partido":"FAMATINA","municipio":null,"cp":5361,"latitud":null,"longitud":null},{"id":20332,"nombre":"EL PLUMERILLO","partido":"CAPITAL","municipio":null,"cp":5300,"latitud":null,"longitud":null},{"id":14015,"nombre":"EL PORTEZUELO","partido":"GENERAL JUAN FACUNDO QUIROGA","municipio":null,"cp":5385,"latitud":"-30.8420811","longitud":"-66.7122726"},{"id":20668,"nombre":"EL POTRERILLO","partido":"FAMATINA","municipio":null,"cp":5361,"latitud":"-28.3958816","longitud":"-67.6991887"},{"id":14016,"nombre":"EL POTRERILLO","partido":"GENERAL JUAN FACUNDO QUIROGA","municipio":null,"cp":5385,"latitud":null,"longitud":null},{"id":14116,"nombre":"EL POTRERILLO","partido":"ROSARIO VERA PE\u00d1ALOZA","municipio":null,"cp":5475,"latitud":"-31.1443104","longitud":"-66.4401865"},{"id":20922,"nombre":"EL POTRERILLO R V PE\u00d1ALOZA","partido":"ROSARIO VERA PE\u00d1ALOZA","municipio":null,"cp":5475,"latitud":null,"longitud":null},{"id":14017,"nombre":"EL POTRERO","partido":"GENERAL JUAN FACUNDO QUIROGA","municipio":null,"cp":5385,"latitud":"-30.9208111","longitud":"-66.6766889"},{"id":20957,"nombre":"EL PUEBLITO","partido":"SAN BLAS DE LOS SAUCES","municipio":null,"cp":5327,"latitud":null,"longitud":null},{"id":13975,"nombre":"EL PUESTO","partido":"GENERAL ANGEL VICENTE PE\u00d1ALOZA","municipio":null,"cp":5385,"latitud":null,"longitud":null},{"id":20747,"nombre":"EL QUEBRACHAL","partido":"GENERAL BELGRANO","municipio":null,"cp":5383,"latitud":null,"longitud":null},{"id":20333,"nombre":"EL QUEBRACHO","partido":"CAPITAL","municipio":null,"cp":5301,"latitud":"-29.2215999","longitud":"-65.9740301"},{"id":13992,"nombre":"EL QUEBRACHO","partido":"GENERAL BELGRANO","municipio":null,"cp":5383,"latitud":null,"longitud":null},{"id":20682,"nombre":"EL QUEMADO","partido":"CHAMICAL","municipio":null,"cp":5380,"latitud":null,"longitud":null},{"id":14056,"nombre":"EL QUEMADO","partido":"GENERAL OCAMPO","municipio":null,"cp":5475,"latitud":"-30.9806888","longitud":"-66.3467830"},{"id":27732,"nombre":"EL RETAMAL","partido":"GENERAL JUAN FACUNDO QUIROGA","municipio":null,"cp":5385,"latitud":"-30.7684144","longitud":"-66.7975202"},{"id":13902,"nombre":"EL RETAMO","partido":"CHAMICAL","municipio":null,"cp":5380,"latitud":"-30.1491271","longitud":"-65.8653597"},{"id":14150,"nombre":"EL RETIRO","partido":"SAN BLAS DE LOS SAUCES","municipio":null,"cp":5325,"latitud":"-28.3207485","longitud":"-67.0533761"},{"id":20924,"nombre":"EL RODEO","partido":"ROSARIO VERA PE\u00d1ALOZA","municipio":null,"cp":5471,"latitud":"-31.0851372","longitud":"-66.5737980"},{"id":13853,"nombre":"EL ROSARIO","partido":"CAPITAL","municipio":null,"cp":5263,"latitud":"-29.2318439","longitud":"-65.9133530"},{"id":13854,"nombre":"EL TALA","partido":"CAPITAL","municipio":null,"cp":5304,"latitud":"-29.6180689","longitud":"-66.8976392"},{"id":14117,"nombre":"EL TALA","partido":"ROSARIO VERA PE\u00d1ALOZA","municipio":null,"cp":5471,"latitud":"-31.6144666","longitud":"-66.4251428"},{"id":20703,"nombre":"EL VALDECITO","partido":"GENERAL SAN MARTIN","municipio":null,"cp":5473,"latitud":null,"longitud":null},{"id":13855,"nombre":"EL VALLE","partido":"CAPITAL","municipio":null,"cp":5301,"latitud":null,"longitud":null},{"id":14085,"nombre":"EL VALLECITO","partido":"GENERAL SAN MARTIN","municipio":null,"cp":5360,"latitud":null,"longitud":null},{"id":14057,"nombre":"EL VERDE","partido":"GENERAL OCAMPO","municipio":null,"cp":5275,"latitud":null,"longitud":null},{"id":13932,"nombre":"EL ZAPALLAR","partido":"CORONEL FELIPE VARELA","municipio":null,"cp":5353,"latitud":"-29.2915183","longitud":"-68.6774733"},{"id":13856,"nombre":"ESPERANZA DE LOS CERRILLOS","partido":"CAPITAL","municipio":null,"cp":5263,"latitud":null,"longitud":null},{"id":13969,"nombre":"ESQUINA DEL NORTE","partido":"CHAMICAL","municipio":null,"cp":5380,"latitud":"-30.4233753","longitud":"-66.0925537"},{"id":13993,"nombre":"ESQUINA DEL SUD","partido":"GENERAL BELGRANO","municipio":null,"cp":5383,"latitud":"-30.6582432","longitud":"-66.1557130"},{"id":14058,"nombre":"ESQUINA GRANDE","partido":"GENERAL OCAMPO","municipio":null,"cp":5275,"latitud":"-30.9492667","longitud":"-66.0531047"},{"id":20335,"nombre":"ESTACION 69","partido":"CAPITAL","municipio":null,"cp":5300,"latitud":null,"longitud":null},{"id":13834,"nombre":"ESTACION MAZAN","partido":"ARAUCO","municipio":"ARAUCO","cp":5313,"latitud":"-28.6715842","longitud":"-66.4937543"},{"id":21846,"nombre":"ESTANCIA DE MAIZ","partido":"CORONEL FELIPE VARELA","municipio":null,"cp":5361,"latitud":null,"longitud":null},{"id":13976,"nombre":"FALDA DE CITAN","partido":"GENERAL ANGEL VICENTE PE\u00d1ALOZA","municipio":null,"cp":5385,"latitud":null,"longitud":null},{"id":13957,"nombre":"FAMATINA","partido":"FAMATINA","municipio":"FAMATINA","cp":5365,"latitud":"-28.9211426","longitud":"-67.5197601"},{"id":20336,"nombre":"FLAMENCO","partido":"CAPITAL","municipio":null,"cp":5300,"latitud":null,"longitud":null},{"id":14059,"nombre":"FRANCISCO ORTIZ DE OCAMPO","partido":"GENERAL OCAMPO","municipio":null,"cp":5275,"latitud":null,"longitud":null},{"id":20683,"nombre":"GOBERNADOR GORDILLO","partido":"CHAMICAL","municipio":null,"cp":5380,"latitud":null,"longitud":null},{"id":13914,"nombre":"GUACHIN","partido":"CHILECITO","municipio":null,"cp":5367,"latitud":null,"longitud":null},{"id":16418,"nombre":"GUANDACOL","partido":"CORONEL FELIPE VARELA","municipio":"CORONEL FELIPE VARELA","cp":5353,"latitud":"-29.5098593","longitud":"-68.5522045"},{"id":20813,"nombre":"GUAYAPA","partido":"INDEPENDENCIA","municipio":null,"cp":5386,"latitud":null,"longitud":null},{"id":14162,"nombre":"HUACO","partido":"SANAGASTA","municipio":null,"cp":5301,"latitud":"-29.1605246","longitud":"-67.0919556"},{"id":14018,"nombre":"HUAJA","partido":"GENERAL JUAN FACUNDO QUIROGA","municipio":null,"cp":5385,"latitud":null,"longitud":null},{"id":20778,"nombre":"HUNQUILLAL","partido":"GENERAL OCAMPO","municipio":null,"cp":5274,"latitud":null,"longitud":null},{"id":13994,"nombre":"ILIAR","partido":"GENERAL BELGRANO","municipio":null,"cp":5381,"latitud":null,"longitud":null},{"id":14019,"nombre":"ILISCO","partido":"GENERAL JUAN FACUNDO QUIROGA","municipio":null,"cp":5471,"latitud":null,"longitud":null},{"id":20925,"nombre":"ILLISCA","partido":"ROSARIO VERA PE\u00d1ALOZA","municipio":null,"cp":5471,"latitud":null,"longitud":null},{"id":13897,"nombre":"ISMIANGO","partido":"CASTRO BARROS","municipio":null,"cp":5301,"latitud":"-29.0189171","longitud":"-66.8885345"},{"id":14177,"nombre":"JAGUE","partido":"VINCHINA","municipio":null,"cp":5359,"latitud":"-28.6604901","longitud":"-68.3668741"},{"id":20337,"nombre":"JESUS MARIA","partido":"CAPITAL","municipio":null,"cp":5300,"latitud":null,"longitud":null},{"id":20779,"nombre":"KILOMETRO 619","partido":"GENERAL OCAMPO","municipio":null,"cp":5272,"latitud":null,"longitud":null},{"id":20748,"nombre":"KILOMETRO 645","partido":"GENERAL BELGRANO","municipio":null,"cp":5276,"latitud":null,"longitud":null},{"id":20705,"nombre":"KILOMETRO 682","partido":"GENERAL SAN MARTIN","municipio":null,"cp":5275,"latitud":null,"longitud":null},{"id":20704,"nombre":"KILOMETRO 732","partido":"GENERAL SAN MARTIN","municipio":null,"cp":5717,"latitud":null,"longitud":null},{"id":20339,"nombre":"KILOMETRO 861","partido":"CAPITAL","municipio":null,"cp":5300,"latitud":null,"longitud":null},{"id":20340,"nombre":"KILOMETRO 875","partido":"CAPITAL","municipio":null,"cp":5300,"latitud":null,"longitud":null},{"id":20208,"nombre":"KILOMETRO 891","partido":"ARAUCO","municipio":null,"cp":5313,"latitud":null,"longitud":null},{"id":20211,"nombre":"KILOMETRO 921","partido":"ARAUCO","municipio":null,"cp":5313,"latitud":null,"longitud":null},{"id":14118,"nombre":"LA AGUADA","partido":"ROSARIO VERA PE\u00d1ALOZA","municipio":null,"cp":5470,"latitud":"-31.1018959","longitud":"-66.6178368"},{"id":14061,"nombre":"LA AGUADITA","partido":"GENERAL OCAMPO","municipio":null,"cp":5275,"latitud":"-31.0981903","longitud":"-66.3412552"},{"id":20592,"nombre":"LA AGUADITA","partido":"GENERAL JUAN FACUNDO QUIROGA","municipio":null,"cp":5385,"latitud":null,"longitud":null},{"id":20706,"nombre":"LA AMERICA","partido":"GENERAL SAN MARTIN","municipio":null,"cp":5473,"latitud":null,"longitud":null},{"id":13857,"nombre":"LA ANTIGUA","partido":"CAPITAL","municipio":null,"cp":5301,"latitud":"-29.8062940","longitud":"-66.0972193"},{"id":20985,"nombre":"LA ARMONIA","partido":"VINCHINA","municipio":null,"cp":5359,"latitud":"-28.4525433","longitud":"-68.4305267"},{"id":14168,"nombre":"LA BANDA","partido":"VINCHINA","municipio":null,"cp":5359,"latitud":"-28.8045824","longitud":"-68.1891819"},{"id":13958,"nombre":"LA BANDA","partido":"FAMATINA","municipio":null,"cp":5365,"latitud":null,"longitud":null},{"id":13858,"nombre":"LA BUENA ESTRELLA","partido":"CAPITAL","municipio":null,"cp":5301,"latitud":null,"longitud":null},{"id":13859,"nombre":"LA BUENA SUERTE","partido":"CAPITAL","municipio":null,"cp":5300,"latitud":null,"longitud":null},{"id":14119,"nombre":"LA CALERA","partido":"ROSARIO VERA PE\u00d1ALOZA","municipio":null,"cp":5471,"latitud":"-31.2308818","longitud":"-66.5567899"},{"id":14120,"nombre":"LA CALLANA","partido":"ROSARIO VERA PE\u00d1ALOZA","municipio":null,"cp":5471,"latitud":"-31.6601040","longitud":"-66.3592975"},{"id":20926,"nombre":"LA CARRIZANA","partido":"ROSARIO VERA PE\u00d1ALOZA","municipio":null,"cp":5470,"latitud":null,"longitud":null},{"id":20707,"nombre":"LA CHILCA","partido":"GENERAL SAN MARTIN","municipio":null,"cp":5473,"latitud":"-31.8370228","longitud":"-65.8366241"},{"id":20749,"nombre":"LA CHIMENEA","partido":"GENERAL BELGRANO","municipio":null,"cp":5383,"latitud":null,"longitud":null},{"id":14178,"nombre":"LA CIENAGA","partido":"VINCHINA","municipio":null,"cp":5350,"latitud":"-28.2873421","longitud":"-68.2192917"},{"id":20560,"nombre":"LA CIENAGA","partido":"CORONEL FELIPE VARELA","municipio":null,"cp":5350,"latitud":"-29.2067261","longitud":"-68.7003860"},{"id":20750,"nombre":"LA CIENAGA","partido":"GENERAL BELGRANO","municipio":null,"cp":5381,"latitud":null,"longitud":null},{"id":14121,"nombre":"LA CONSULTA","partido":"ROSARIO VERA PE\u00d1ALOZA","municipio":null,"cp":5470,"latitud":"-31.6221555","longitud":"-66.5187103"},{"id":13959,"nombre":"LA CUADRA","partido":"FAMATINA","municipio":null,"cp":5361,"latitud":"-28.4724818","longitud":"-67.6918653"},{"id":14062,"nombre":"LA DORA","partido":"GENERAL OCAMPO","municipio":null,"cp":5475,"latitud":null,"longitud":null},{"id":20708,"nombre":"LA ENVIDIA","partido":"GENERAL SAN MARTIN","municipio":null,"cp":5473,"latitud":null,"longitud":null},{"id":20928,"nombre":"LA ESCONDIDA","partido":"ROSARIO VERA PE\u00d1ALOZA","municipio":null,"cp":5471,"latitud":null,"longitud":null},{"id":13860,"nombre":"LA ESPERANZA","partido":"CAPITAL","municipio":null,"cp":5300,"latitud":null,"longitud":null},{"id":14021,"nombre":"LA ESQUINA","partido":"GENERAL JUAN FACUNDO QUIROGA","municipio":null,"cp":5471,"latitud":null,"longitud":null},{"id":20709,"nombre":"LA ESQUINA","partido":"GENERAL SAN MARTIN","municipio":null,"cp":5473,"latitud":null,"longitud":null},{"id":20341,"nombre":"LA FLOR","partido":"CAPITAL","municipio":null,"cp":5300,"latitud":null,"longitud":null},{"id":13996,"nombre":"LA FLORIDA","partido":"GENERAL BELGRANO","municipio":null,"cp":5276,"latitud":"-30.5338173","longitud":"-65.8779068"},{"id":20669,"nombre":"LA HIGUERA","partido":"FAMATINA","municipio":null,"cp":5361,"latitud":null,"longitud":null},{"id":13997,"nombre":"LA HUERTA","partido":"GENERAL BELGRANO","municipio":null,"cp":5383,"latitud":"-30.5549655","longitud":"-66.2921343"},{"id":14063,"nombre":"LA IGUALDAD","partido":"GENERAL OCAMPO","municipio":null,"cp":5474,"latitud":null,"longitud":null},{"id":20684,"nombre":"LA INVERNADA","partido":"CHAMICAL","municipio":null,"cp":5380,"latitud":null,"longitud":null},{"id":14087,"nombre":"LA ISLA","partido":"GENERAL OCAMPO","municipio":null,"cp":5274,"latitud":"-31.2317279","longitud":"-65.9616384"},{"id":14122,"nombre":"LA JARILLA","partido":"ROSARIO VERA PE\u00d1ALOZA","municipio":null,"cp":5471,"latitud":"-31.4838312","longitud":"-66.3943794"},{"id":14123,"nombre":"LA LAGUNA","partido":"ROSARIO VERA PE\u00d1ALOZA","municipio":null,"cp":5471,"latitud":"-31.1605472","longitud":"-66.6539097"},{"id":20342,"nombre":"LA LANCHA","partido":"CAPITAL","municipio":null,"cp":5300,"latitud":"-29.1988564","longitud":"-66.8032684"},{"id":20344,"nombre":"LA LATA","partido":"CAPITAL","municipio":null,"cp":5300,"latitud":"-29.2214936","longitud":"-66.0953979"},{"id":13861,"nombre":"LA LIBERTAD","partido":"CAPITAL","municipio":null,"cp":5263,"latitud":null,"longitud":null},{"id":20710,"nombre":"LA LIBERTAD","partido":"GENERAL SAN MARTIN","municipio":null,"cp":5473,"latitud":null,"longitud":null},{"id":13977,"nombre":"LA LOMITA","partido":"GENERAL ANGEL VICENTE PE\u00d1ALOZA","municipio":null,"cp":5385,"latitud":null,"longitud":null},{"id":13933,"nombre":"LA MARAVILLA","partido":"CORONEL FELIPE VARELA","municipio":null,"cp":5351,"latitud":"-29.4178437","longitud":"-68.2482298"},{"id":13978,"nombre":"LA MERCED","partido":"GENERAL ANGEL VICENTE PE\u00d1ALOZA","municipio":null,"cp":5385,"latitud":null,"longitud":null},{"id":20970,"nombre":"LA PAMPA","partido":"VINCHINA","municipio":null,"cp":5359,"latitud":null,"longitud":null},{"id":13934,"nombre":"LA PAMPA","partido":"CORONEL FELIPE VARELA","municipio":null,"cp":5361,"latitud":null,"longitud":null},{"id":13935,"nombre":"LA PERLITA","partido":"CORONEL FELIPE VARELA","municipio":null,"cp":5350,"latitud":null,"longitud":null},{"id":14124,"nombre":"LA PINTADA","partido":"ROSARIO VERA PE\u00d1ALOZA","municipio":null,"cp":5470,"latitud":null,"longitud":null},{"id":14151,"nombre":"LA PIRGUA","partido":"SAN BLAS DE LOS SAUCES","municipio":null,"cp":5325,"latitud":null,"longitud":null},{"id":14152,"nombre":"LA PLAZA","partido":"SAN BLAS DE LOS SAUCES","municipio":null,"cp":5329,"latitud":null,"longitud":null},{"id":14125,"nombre":"LA PRIMAVERA","partido":"ROSARIO VERA PE\u00d1ALOZA","municipio":null,"cp":5470,"latitud":null,"longitud":null},{"id":13916,"nombre":"LA PUNTILLA","partido":"CHILECITO","municipio":null,"cp":5367,"latitud":"-29.1484698","longitud":"-67.4191244"},{"id":13862,"nombre":"LA RAMADITA","partido":"CAPITAL","municipio":null,"cp":5300,"latitud":"-29.5918064","longitud":"-66.6947564"},{"id":14126,"nombre":"LA REFORMA","partido":"ROSARIO VERA PE\u00d1ALOZA","municipio":null,"cp":5471,"latitud":null,"longitud":null},{"id":13979,"nombre":"LA REPRESA","partido":"GENERAL ANGEL VICENTE PE\u00d1ALOZA","municipio":null,"cp":5385,"latitud":null,"longitud":null},{"id":20711,"nombre":"LA REPRESA","partido":"GENERAL SAN MARTIN","municipio":null,"cp":5471,"latitud":"-31.8461571","longitud":"-66.5523638"},{"id":13863,"nombre":"LA RIOJA","partido":"CAPITAL","municipio":"CAPITAL","cp":5300,"latitud":"-29.4132366","longitud":"-66.8474274"},{"id":13864,"nombre":"LA ROSILLA","partido":"CAPITAL","municipio":null,"cp":5301,"latitud":null,"longitud":null},{"id":13903,"nombre":"LA SERENA","partido":"CHAMICAL","municipio":null,"cp":5380,"latitud":"-30.2498825","longitud":"-66.2550253"},{"id":14022,"nombre":"LA TORDILLA","partido":"GENERAL JUAN FACUNDO QUIROGA","municipio":null,"cp":5471,"latitud":null,"longitud":null},{"id":14098,"nombre":"LA TORRE","partido":"INDEPENDENCIA","municipio":null,"cp":5386,"latitud":"-30.2046230","longitud":"-67.6023385"},{"id":13998,"nombre":"LA TRAMPA","partido":"GENERAL BELGRANO","municipio":null,"cp":5383,"latitud":null,"longitud":null},{"id":14023,"nombre":"LA YESERA","partido":"GENERAL JUAN FACUNDO QUIROGA","municipio":null,"cp":5471,"latitud":null,"longitud":null},{"id":14039,"nombre":"LAS AGUADITAS","partido":"GENERAL LAMADRID","municipio":null,"cp":5355,"latitud":null,"longitud":null},{"id":20593,"nombre":"LAS BARRANCAS","partido":"GENERAL JUAN FACUNDO QUIROGA","municipio":null,"cp":5471,"latitud":"-30.9666251","longitud":"-66.8762503"},{"id":14163,"nombre":"LAS BOMBAS","partido":"SANAGASTA","municipio":null,"cp":5301,"latitud":null,"longitud":null},{"id":20345,"nombre":"LAS CA\u00d1AS","partido":"CAPITAL","municipio":null,"cp":5300,"latitud":"-29.2303467","longitud":"-66.8250427"},{"id":13865,"nombre":"LAS CATAS","partido":"CAPITAL","municipio":null,"cp":5301,"latitud":"-29.2016151","longitud":"-66.0202149"},{"id":13960,"nombre":"LAS GREDAS","partido":"FAMATINA","municipio":null,"cp":5365,"latitud":null,"longitud":null},{"id":13980,"nombre":"LAS HIGUERAS","partido":"GENERAL ANGEL VICENTE PE\u00d1ALOZA","municipio":null,"cp":5385,"latitud":null,"longitud":null},{"id":20347,"nombre":"LAS HIGUERILLAS","partido":"CAPITAL","municipio":null,"cp":5300,"latitud":"-29.2826462","longitud":"-66.8312607"},{"id":20349,"nombre":"LAS PADERCITAS","partido":"CAPITAL","municipio":null,"cp":5300,"latitud":null,"longitud":null},{"id":20835,"nombre":"LAS PADERCITAS","partido":"GENERAL LAMADRID","municipio":null,"cp":5355,"latitud":null,"longitud":null},{"id":14064,"nombre":"LAS PALOMAS","partido":"GENERAL OCAMPO","municipio":null,"cp":5275,"latitud":null,"longitud":null},{"id":16584,"nombre":"LAS PE\u00d1AS","partido":"CASTRO BARROS","municipio":null,"cp":5301,"latitud":null,"longitud":null},{"id":14127,"nombre":"LAS SALINAS","partido":"ROSARIO VERA PE\u00d1ALOZA","municipio":null,"cp":5471,"latitud":null,"longitud":null},{"id":13866,"nombre":"LAS SIERRAS BRAVAS","partido":"CAPITAL","municipio":null,"cp":5301,"latitud":null,"longitud":null},{"id":14153,"nombre":"LAS TALAS","partido":"SAN BLAS DE LOS SAUCES","municipio":null,"cp":5329,"latitud":"-28.4517975","longitud":"-67.1178979"},{"id":14128,"nombre":"LAS TOSCAS","partido":"ROSARIO VERA PE\u00d1ALOZA","municipio":null,"cp":5471,"latitud":"-31.7478007","longitud":"-66.7672249"},{"id":21848,"nombre":"LAS TUCUMANESAS","partido":"CORONEL FELIPE VARELA","municipio":null,"cp":5361,"latitud":null,"longitud":null},{"id":20222,"nombre":"LAS TUSCAS","partido":"ARAUCO","municipio":null,"cp":5310,"latitud":null,"longitud":null},{"id":14129,"nombre":"LAS TUSCAS","partido":"ROSARIO VERA PE\u00d1ALOZA","municipio":null,"cp":5470,"latitud":null,"longitud":null},{"id":13999,"nombre":"LAS VERTIENTES","partido":"GENERAL BELGRANO","municipio":null,"cp":5276,"latitud":null,"longitud":null},{"id":14000,"nombre":"LOMA BLANCA","partido":"GENERAL BELGRANO","municipio":"GENERAL BELGRANO","cp":5381,"latitud":"-30.6446138","longitud":"-66.2387417"},{"id":14001,"nombre":"LOMA LARGA","partido":"GENERAL BELGRANO","municipio":null,"cp":5383,"latitud":null,"longitud":null},{"id":20606,"nombre":"LOMA LARGA","partido":"GENERAL JUAN FACUNDO QUIROGA","municipio":null,"cp":5385,"latitud":"-30.8080285","longitud":"-66.6008175"},{"id":14154,"nombre":"LOROHUASI","partido":"SAN BLAS DE LOS SAUCES","municipio":null,"cp":5325,"latitud":null,"longitud":null},{"id":14065,"nombre":"LOS AGUIRRES","partido":"GENERAL OCAMPO","municipio":"GENERAL OCAMPO","cp":5275,"latitud":"-30.8028603","longitud":"-66.0892563"},{"id":14066,"nombre":"LOS ALANICES","partido":"GENERAL OCAMPO","municipio":null,"cp":5275,"latitud":"-30.8036919","longitud":"-65.9978638"},{"id":14024,"nombre":"LOS ALGARROBOS","partido":"GENERAL JUAN FACUNDO QUIROGA","municipio":null,"cp":5385,"latitud":"-30.9397865","longitud":"-66.4529056"},{"id":20814,"nombre":"LOS BALDECITOS","partido":"INDEPENDENCIA","municipio":null,"cp":5386,"latitud":"-30.2131195","longitud":"-67.6915817"},{"id":13836,"nombre":"LOS BALDES","partido":"ARAUCO","municipio":null,"cp":5310,"latitud":null,"longitud":null},{"id":14067,"nombre":"LOS BARRIACITOS","partido":"GENERAL OCAMPO","municipio":null,"cp":5274,"latitud":null,"longitud":null},{"id":20780,"nombre":"LOS BARRIALITOS","partido":"GENERAL OCAMPO","municipio":null,"cp":5274,"latitud":"-30.9855163","longitud":"-66.0502202"},{"id":13904,"nombre":"LOS BORDOS","partido":"CHAMICAL","municipio":null,"cp":5380,"latitud":"-30.3385015","longitud":"-66.3739821"},{"id":13867,"nombre":"LOS CERRILLOS","partido":"CAPITAL","municipio":null,"cp":5301,"latitud":null,"longitud":null},{"id":14099,"nombre":"LOS COLORADOS","partido":"INDEPENDENCIA","municipio":null,"cp":5386,"latitud":"-29.8948345","longitud":"-67.1497386"},{"id":14130,"nombre":"LOS CORIAS","partido":"ROSARIO VERA PE\u00d1ALOZA","municipio":null,"cp":5471,"latitud":null,"longitud":null},{"id":13961,"nombre":"LOS CORRALES","partido":"FAMATINA","municipio":null,"cp":5361,"latitud":null,"longitud":null},{"id":13936,"nombre":"LOS FRANCES","partido":"CORONEL FELIPE VARELA","municipio":null,"cp":5350,"latitud":null,"longitud":null},{"id":14068,"nombre":"LOS MISTOLES","partido":"GENERAL OCAMPO","municipio":null,"cp":5275,"latitud":"-30.8012291","longitud":"-66.3129037"},{"id":20817,"nombre":"LOS MOGOTES COLORADOS","partido":"INDEPENDENCIA","municipio":null,"cp":5386,"latitud":null,"longitud":null},{"id":13898,"nombre":"LOS MOLINOS","partido":"CASTRO BARROS","municipio":"CASTRO BARROS","cp":5301,"latitud":"-28.7442589","longitud":"-66.9417419"},{"id":13937,"nombre":"LOS NACIMIENTOS","partido":"CORONEL FELIPE VARELA","municipio":null,"cp":5353,"latitud":"-29.5162392","longitud":"-68.0770416"},{"id":14155,"nombre":"LOS OLIVARES","partido":"SAN BLAS DE LOS SAUCES","municipio":null,"cp":5327,"latitud":null,"longitud":null},{"id":20929,"nombre":"LOS OLMOS","partido":"ROSARIO VERA PE\u00d1ALOZA","municipio":null,"cp":5470,"latitud":null,"longitud":null},{"id":14131,"nombre":"LOS OROS","partido":"ROSARIO VERA PE\u00d1ALOZA","municipio":null,"cp":5470,"latitud":"-31.3377953","longitud":"-66.5102386"},{"id":13938,"nombre":"LOS PALACIOS","partido":"CORONEL FELIPE VARELA","municipio":"CORONEL FELIPE VARELA","cp":5351,"latitud":"-29.3713119","longitud":"-68.2271328"},{"id":14156,"nombre":"LOS ROBLES","partido":"SAN BLAS DE LOS SAUCES","municipio":"SAN BLAS DE LOS SAUCES","cp":5329,"latitud":"-28.4517975","longitud":"-67.1178979"},{"id":13917,"nombre":"LOS SARMIENTOS","partido":"CHILECITO","municipio":"CHILECITO","cp":5361,"latitud":"-29.1426048","longitud":"-67.4777756"},{"id":13939,"nombre":"LOS TAMBILLOS","partido":"CORONEL FELIPE VARELA","municipio":null,"cp":5361,"latitud":"-29.4183226","longitud":"-67.8087584"},{"id":13837,"nombre":"MACHIGASTA","partido":"ARAUCO","municipio":"ARAUCO","cp":5311,"latitud":"-28.5410844","longitud":"-66.8070296"},{"id":14025,"nombre":"MALANZAN","partido":"GENERAL JUAN FACUNDO QUIROGA","municipio":"GENERAL JUAN F QUIROGA","cp":5385,"latitud":"-30.8067748","longitud":"-66.6027438"},{"id":13918,"nombre":"MALLIGASTA","partido":"CHILECITO","municipio":"CHILECITO","cp":5361,"latitud":"-29.1648064","longitud":"-67.4328232"},{"id":14132,"nombre":"MASCASIN","partido":"ROSARIO VERA PE\u00d1ALOZA","municipio":null,"cp":5471,"latitud":"-31.3917674","longitud":"-66.9777030"},{"id":13868,"nombre":"MEDANO","partido":"CAPITAL","municipio":null,"cp":5300,"latitud":null,"longitud":null},{"id":13869,"nombre":"MESILLAS BLANCAS","partido":"CAPITAL","municipio":null,"cp":5301,"latitud":null,"longitud":null},{"id":14069,"nombre":"MILAGRO","partido":"GENERAL OCAMPO","municipio":"GENERAL OCAMPO","cp":5274,"latitud":"-31.0098476","longitud":"-65.9946060"},{"id":13919,"nombre":"MIRANDA","partido":"CHILECITO","municipio":null,"cp":5367,"latitud":"-29.3410381","longitud":"-67.6618700"},{"id":14026,"nombre":"MOLLACO","partido":"GENERAL JUAN FACUNDO QUIROGA","municipio":null,"cp":5385,"latitud":null,"longitud":null},{"id":20752,"nombre":"MONTE GRANDE","partido":"GENERAL BELGRANO","municipio":null,"cp":5383,"latitud":"-30.6932359","longitud":"-65.6304399"},{"id":14027,"nombre":"NACATE","partido":"GENERAL JUAN FACUNDO QUIROGA","municipio":null,"cp":5385,"latitud":"-30.8640381","longitud":"-66.4051056"},{"id":14002,"nombre":"NEPES","partido":"GENERAL BELGRANO","municipio":null,"cp":5276,"latitud":"-30.6813316","longitud":"-66.0089722"},{"id":13920,"nombre":"NONOGASTA","partido":"CHILECITO","municipio":"CHILECITO","cp":5372,"latitud":"-29.3054485","longitud":"-67.4960861"},{"id":14133,"nombre":"\u00d1OQUEVES","partido":"ROSARIO VERA PE\u00d1ALOZA","municipio":null,"cp":5471,"latitud":null,"longitud":null},{"id":14088,"nombre":"NUEVA ESPERANZA","partido":"GENERAL SAN MARTIN","municipio":null,"cp":5473,"latitud":"-31.9207535","longitud":"-66.2348566"},{"id":14070,"nombre":"OLPAS","partido":"GENERAL OCAMPO","municipio":null,"cp":5275,"latitud":"-30.8195242","longitud":"-66.2483101"},{"id":14003,"nombre":"OLTA","partido":"GENERAL BELGRANO","municipio":"GENERAL BELGRANO","cp":5383,"latitud":"-30.6287346","longitud":"-66.2650146"},{"id":13981,"nombre":"PACATALA","partido":"GENERAL ANGEL VICENTE PE\u00d1ALOZA","municipio":null,"cp":5385,"latitud":"-30.6368421","longitud":"-66.4385558"},{"id":14040,"nombre":"PADERCITAS","partido":"GENERAL LAMADRID","municipio":null,"cp":5355,"latitud":null,"longitud":null},{"id":13940,"nombre":"PAGANCILLO","partido":"CORONEL FELIPE VARELA","municipio":null,"cp":5369,"latitud":"-29.5412536","longitud":"-68.0970405"},{"id":14100,"nombre":"PAGANZO","partido":"INDEPENDENCIA","municipio":null,"cp":5386,"latitud":"-30.2109129","longitud":"-67.2877281"},{"id":20455,"nombre":"PALO LABRADO","partido":"CHAMICAL","municipio":null,"cp":5380,"latitud":null,"longitud":null},{"id":26288,"nombre":"PARAJE MONTE GRANDE","partido":"GENERAL OCAMPO","municipio":null,"cp":5276,"latitud":null,"longitud":null},{"id":20688,"nombre":"PARECITAS","partido":"GENERAL LAMADRID","municipio":null,"cp":5355,"latitud":"-28.9947758","longitud":"-68.2591934"},{"id":13941,"nombre":"PASO SAN ISIDRO","partido":"CORONEL FELIPE VARELA","municipio":null,"cp":5351,"latitud":"-29.4709606","longitud":"-68.2288421"},{"id":20689,"nombre":"PASTOS LARGOS","partido":"GENERAL LAMADRID","municipio":null,"cp":5355,"latitud":null,"longitud":null},{"id":14101,"nombre":"PATQUIA","partido":"INDEPENDENCIA","municipio":"INDEPENDENCIA","cp":5386,"latitud":"-30.0439644","longitud":"-66.8819674"},{"id":14169,"nombre":"PE\u00d1AS BLANCAS","partido":"VINCHINA","municipio":null,"cp":5359,"latitud":null,"longitud":null},{"id":21850,"nombre":"PIEDRA DE TALAMPAYA","partido":"CORONEL FELIPE VARELA","municipio":null,"cp":5361,"latitud":null,"longitud":null},{"id":14071,"nombre":"PIEDRA LARGA","partido":"GENERAL OCAMPO","municipio":null,"cp":5475,"latitud":null,"longitud":null},{"id":21849,"nombre":"PIEDRA PINTADA","partido":"CORONEL FELIPE VARELA","municipio":null,"cp":5361,"latitud":"-29.4481373","longitud":"-67.8259888"},{"id":13899,"nombre":"PINCHAS","partido":"CASTRO BARROS","municipio":"CASTRO BARROS","cp":5301,"latitud":"-28.9304047","longitud":"-66.9514160"},{"id":13962,"nombre":"PITUIL","partido":"FAMATINA","municipio":"FAMATINA","cp":5361,"latitud":"-28.5776482","longitud":"-67.4417648"},{"id":13963,"nombre":"PLAZA NUEVA","partido":"FAMATINA","municipio":null,"cp":5365,"latitud":null,"longitud":null},{"id":13964,"nombre":"PLAZA VIEJA","partido":"FAMATINA","municipio":null,"cp":5361,"latitud":"-28.9731598","longitud":"-67.5201316"},{"id":13905,"nombre":"POLCO","partido":"CHAMICAL","municipio":null,"cp":5380,"latitud":"-30.4293154","longitud":"-66.3586422"},{"id":14134,"nombre":"PORTEZUELO DE LOS ARCE","partido":"ROSARIO VERA PE\u00d1ALOZA","municipio":null,"cp":5471,"latitud":null,"longitud":null},{"id":14170,"nombre":"POTRERO GRANDE","partido":"VINCHINA","municipio":null,"cp":5359,"latitud":"-28.3105719","longitud":"-68.2411587"},{"id":13870,"nombre":"POZO BLANCO","partido":"CAPITAL","municipio":null,"cp":5301,"latitud":null,"longitud":null},{"id":13871,"nombre":"POZO DE AVILA","partido":"CAPITAL","municipio":null,"cp":5300,"latitud":null,"longitud":null},{"id":20685,"nombre":"POZO DE LA ORILLA","partido":"CHAMICAL","municipio":null,"cp":5380,"latitud":null,"longitud":null},{"id":14089,"nombre":"POZO DE LA PIEDRA","partido":"GENERAL SAN MARTIN","municipio":null,"cp":5473,"latitud":null,"longitud":null},{"id":13872,"nombre":"POZO DE LA YEGUA","partido":"CAPITAL","municipio":null,"cp":5301,"latitud":"-29.7017532","longitud":"-65.9821857"},{"id":20713,"nombre":"POZO DE PIEDRA","partido":"GENERAL SAN MARTIN","municipio":null,"cp":5473,"latitud":null,"longitud":null},{"id":14072,"nombre":"POZO DEL MEDIO","partido":"GENERAL OCAMPO","municipio":null,"cp":5274,"latitud":"-31.0232811","longitud":"-65.8893414"},{"id":20351,"nombre":"POZO ESCONDIDO","partido":"CAPITAL","municipio":null,"cp":5300,"latitud":null,"longitud":null},{"id":13873,"nombre":"PUERTA DE LA QUEBRADA","partido":"CAPITAL","municipio":null,"cp":5300,"latitud":null,"longitud":null},{"id":13874,"nombre":"PUERTO ALEGRE","partido":"CAPITAL","municipio":null,"cp":5300,"latitud":"-29.3201492","longitud":"-66.7707867"},{"id":13942,"nombre":"PUERTO ALEGRE","partido":"CORONEL FELIPE VARELA","municipio":null,"cp":5361,"latitud":"-29.4351912","longitud":"-67.9072833"},{"id":13875,"nombre":"PUERTO DEL VALLE","partido":"CAPITAL","municipio":null,"cp":5301,"latitud":"-29.7182655","longitud":"-65.9562378"},{"id":14090,"nombre":"PUESTO DE CARRIZO","partido":"GENERAL SAN MARTIN","municipio":null,"cp":5471,"latitud":null,"longitud":null},{"id":14028,"nombre":"PUESTO DE LOS SANCHEZ","partido":"GENERAL JUAN FACUNDO QUIROGA","municipio":null,"cp":5471,"latitud":null,"longitud":null},{"id":14091,"nombre":"PUESTO DICHOSO","partido":"GENERAL SAN MARTIN","municipio":null,"cp":5471,"latitud":"-31.9212494","longitud":"-66.5383220"},{"id":20819,"nombre":"PUESTO TALITA","partido":"INDEPENDENCIA","municipio":null,"cp":5386,"latitud":null,"longitud":null},{"id":20608,"nombre":"PULUCHAN","partido":"GENERAL JUAN FACUNDO QUIROGA","municipio":null,"cp":5385,"latitud":"-30.9808524","longitud":"-66.6786809"},{"id":20690,"nombre":"PUNTA DE AGUA","partido":"GENERAL LAMADRID","municipio":null,"cp":5355,"latitud":null,"longitud":null},{"id":13982,"nombre":"PUNTA DE LOS LLANOS","partido":"GENERAL ANGEL VICENTE PE\u00d1ALOZA","municipio":"GENERAL ANGEL V PE\u00d1ALOZA","cp":5384,"latitud":"-30.1520252","longitud":"-66.5451202"},{"id":14135,"nombre":"PUNTA DEL CERRO","partido":"ROSARIO VERA PE\u00d1ALOZA","municipio":null,"cp":5470,"latitud":null,"longitud":null},{"id":13876,"nombre":"PUNTA DEL NEGRO","partido":"CAPITAL","municipio":null,"cp":5300,"latitud":null,"longitud":null},{"id":13906,"nombre":"QUEBRACHAL","partido":"CHAMICAL","municipio":null,"cp":5381,"latitud":null,"longitud":null},{"id":20686,"nombre":"QUEBRACHO HERRADO","partido":"CHAMICAL","municipio":null,"cp":5380,"latitud":null,"longitud":null},{"id":27730,"nombre":"QUEBRADA DE LOS CONDORES","partido":"GENERAL ANGEL VICENTE PE\u00d1ALOZA","municipio":null,"cp":5385,"latitud":null,"longitud":null},{"id":14136,"nombre":"QUEBRADA DEL VALLECITO","partido":"ROSARIO VERA PE\u00d1ALOZA","municipio":null,"cp":5471,"latitud":null,"longitud":null},{"id":14137,"nombre":"REAL DEL CADILLO","partido":"ROSARIO VERA PE\u00d1ALOZA","municipio":null,"cp":5471,"latitud":"-31.3560334","longitud":"-66.8103706"},{"id":20820,"nombre":"REPRESA DE LA PUNTA","partido":"INDEPENDENCIA","municipio":null,"cp":5386,"latitud":"-30.2017297","longitud":"-67.4540797"},{"id":20931,"nombre":"REPRESA DEL MONTE","partido":"ROSARIO VERA PE\u00d1ALOZA","municipio":null,"cp":5470,"latitud":null,"longitud":null},{"id":14029,"nombre":"RETAMAL","partido":"GENERAL JUAN FACUNDO QUIROGA","municipio":null,"cp":5385,"latitud":"-30.7631226","longitud":"-66.8054504"},{"id":14030,"nombre":"RIO DE LAS CA\u00d1AS","partido":"GENERAL JUAN FACUNDO QUIROGA","municipio":null,"cp":5385,"latitud":null,"longitud":null},{"id":27541,"nombre":"RIOS DE LAS MESADAS","partido":"GENERAL ANGEL VICENTE PE\u00d1ALOZA","municipio":null,"cp":5385,"latitud":null,"longitud":null},{"id":27540,"nombre":"RIOS DE LOS COLCOLES","partido":"GENERAL ANGEL VICENTE PE\u00d1ALOZA","municipio":null,"cp":5385,"latitud":null,"longitud":null},{"id":14041,"nombre":"RIVADAVIA","partido":"GENERAL LAMADRID","municipio":null,"cp":5355,"latitud":"-29.0008260","longitud":"-68.2115738"},{"id":14031,"nombre":"SALANA","partido":"GENERAL JUAN FACUNDO QUIROGA","municipio":null,"cp":5385,"latitud":"-31.0290164","longitud":"-66.6201927"},{"id":14157,"nombre":"SALICAS","partido":"SAN BLAS DE LOS SAUCES","municipio":null,"cp":5327,"latitud":"-28.4076258","longitud":"-67.0961546"},{"id":14102,"nombre":"SALINAS DE BUSTOS","partido":"INDEPENDENCIA","municipio":null,"cp":5386,"latitud":null,"longitud":null},{"id":21852,"nombre":"SALINAS DEL LEONCITO","partido":"CORONEL FELIPE VARELA","municipio":null,"cp":5361,"latitud":null,"longitud":null},{"id":13921,"nombre":"SAMAY HUASI","partido":"CHILECITO","municipio":null,"cp":5360,"latitud":null,"longitud":null},{"id":20353,"nombre":"SAN AGUSTIN","partido":"CAPITAL","municipio":null,"cp":5300,"latitud":null,"longitud":null},{"id":13877,"nombre":"SAN ANTONIO","partido":"CAPITAL","municipio":null,"cp":5301,"latitud":"-29.2378807","longitud":"-66.1444397"},{"id":13838,"nombre":"SAN ANTONIO","partido":"ARAUCO","municipio":null,"cp":5310,"latitud":"-28.5553801","longitud":"-66.8013857"},{"id":20932,"nombre":"SAN ANTONIO","partido":"ROSARIO VERA PE\u00d1ALOZA","municipio":null,"cp":5470,"latitud":"-31.7499355","longitud":"-66.7973326"},{"id":14032,"nombre":"SAN ANTONIO","partido":"GENERAL JUAN FACUNDO QUIROGA","municipio":null,"cp":5471,"latitud":"-31.0900907","longitud":"-66.7571870"},{"id":14092,"nombre":"SAN ANTONIO","partido":"GENERAL SAN MARTIN","municipio":null,"cp":5473,"latitud":null,"longitud":null},{"id":13878,"nombre":"SAN BERNARDO","partido":"CAPITAL","municipio":null,"cp":5301,"latitud":"-29.4487794","longitud":"-66.0096190"},{"id":13943,"nombre":"SAN BERNARDO","partido":"CORONEL FELIPE VARELA","municipio":null,"cp":5350,"latitud":null,"longitud":null},{"id":27971,"nombre":"SAN BLAS","partido":"SAN BLAS DE LOS SAUCES","municipio":"SAN BLAS DE LOS SAUCES","cp":5327,"latitud":"-28.5555820","longitud":"-67.1592840"},{"id":14073,"nombre":"SAN CRISTOBAL","partido":"GENERAL OCAMPO","municipio":null,"cp":5274,"latitud":"-30.8736395","longitud":"-65.9276221"},{"id":20354,"nombre":"SAN GUILLERMO","partido":"CAPITAL","municipio":null,"cp":5300,"latitud":null,"longitud":null},{"id":13879,"nombre":"SAN IGNACIO","partido":"CAPITAL","municipio":null,"cp":5301,"latitud":null,"longitud":null},{"id":27733,"nombre":"SAN ISIDRO","partido":"ROSARIO VERA PE\u00d1ALOZA","municipio":null,"cp":5471,"latitud":"-31.7883110","longitud":"-66.3249301"},{"id":20356,"nombre":"SAN JAVIER","partido":"CAPITAL","municipio":null,"cp":5300,"latitud":null,"longitud":null},{"id":13880,"nombre":"SAN JOSE","partido":"CAPITAL","municipio":null,"cp":5301,"latitud":"-29.4810352","longitud":"-66.2571182"},{"id":20564,"nombre":"SAN JOSE","partido":"CORONEL FELIPE VARELA","municipio":null,"cp":5350,"latitud":"-29.3616047","longitud":"-67.8012695"},{"id":14138,"nombre":"SAN JOSE","partido":"ROSARIO VERA PE\u00d1ALOZA","municipio":null,"cp":5471,"latitud":"-31.6986339","longitud":"-66.4850097"},{"id":14074,"nombre":"SAN JOSE","partido":"GENERAL OCAMPO","municipio":null,"cp":5475,"latitud":"-30.8828938","longitud":"-66.1954615"},{"id":20357,"nombre":"SAN JUAN","partido":"CAPITAL","municipio":null,"cp":5300,"latitud":"-29.3699398","longitud":"-66.4524002"},{"id":13881,"nombre":"SAN LORENZO","partido":"CAPITAL","municipio":null,"cp":5301,"latitud":"-29.3420302","longitud":"-66.3673922"},{"id":13882,"nombre":"SAN MARTIN","partido":"CAPITAL","municipio":null,"cp":5300,"latitud":null,"longitud":null},{"id":13883,"nombre":"SAN MIGUEL","partido":"CAPITAL","municipio":"CAPITAL","cp":5301,"latitud":"-29.6229992","longitud":"-66.0928726"},{"id":13922,"nombre":"SAN MIGUEL","partido":"CHILECITO","municipio":"CHILECITO","cp":5361,"latitud":"-29.1846748","longitud":"-67.4780827"},{"id":13884,"nombre":"SAN NICOLAS","partido":"CAPITAL","municipio":null,"cp":5301,"latitud":"-29.9590758","longitud":"-66.5758222"},{"id":13923,"nombre":"SAN NICOLAS","partido":"CHILECITO","municipio":null,"cp":5360,"latitud":"-29.1217635","longitud":"-67.4758960"},{"id":20714,"nombre":"SAN NICOLAS","partido":"GENERAL SAN MARTIN","municipio":null,"cp":5473,"latitud":null,"longitud":null},{"id":16585,"nombre":"SAN PEDRO","partido":"CASTRO BARROS","municipio":"CASTRO BARROS","cp":5301,"latitud":"-28.6550961","longitud":"-66.9189529"},{"id":20609,"nombre":"SAN PEDRO","partido":"GENERAL JUAN FACUNDO QUIROGA","municipio":null,"cp":5385,"latitud":"-30.7707047","longitud":"-66.9600198"},{"id":13886,"nombre":"SAN RAFAEL","partido":"CAPITAL","municipio":null,"cp":5301,"latitud":"-29.5554290","longitud":"-66.3735928"},{"id":14139,"nombre":"SAN RAFAEL","partido":"GENERAL SAN MARTIN","municipio":null,"cp":5471,"latitud":"-31.8261279","longitud":"-66.3766044"},{"id":20753,"nombre":"SAN RAMON","partido":"GENERAL BELGRANO","municipio":null,"cp":5383,"latitud":null,"longitud":null},{"id":27731,"nombre":"SAN RAMON","partido":"GENERAL ANGEL VICENTE PE\u00d1ALOZA","municipio":null,"cp":5385,"latitud":null,"longitud":null},{"id":20610,"nombre":"SAN RAMON","partido":"GENERAL JUAN FACUNDO QUIROGA","municipio":null,"cp":5385,"latitud":"-30.6046561","longitud":"-66.9320340"},{"id":20612,"nombre":"SAN ROQUE","partido":"GENERAL JUAN FACUNDO QUIROGA","municipio":null,"cp":5385,"latitud":"-30.6196098","longitud":"-67.1913605"},{"id":20715,"nombre":"SAN SOLANO","partido":"GENERAL SAN MARTIN","municipio":null,"cp":5473,"latitud":"-31.4811242","longitud":"-65.9207860"},{"id":20933,"nombre":"SAN VICENTE","partido":"ROSARIO VERA PE\u00d1ALOZA","municipio":null,"cp":5470,"latitud":null,"longitud":null},{"id":13924,"nombre":"SA\u00d1OGASTA","partido":"CHILECITO","municipio":"CHILECITO","cp":5367,"latitud":"-29.3209763","longitud":"-67.6002121"},{"id":13887,"nombre":"SANTA ANA","partido":"CAPITAL","municipio":null,"cp":5301,"latitud":null,"longitud":null},{"id":13907,"nombre":"SANTA BARBARA","partido":"CHAMICAL","municipio":null,"cp":5381,"latitud":"-30.5111742","longitud":"-66.3219966"},{"id":13944,"nombre":"SANTA CLARA","partido":"CORONEL FELIPE VARELA","municipio":null,"cp":5351,"latitud":"-29.3613773","longitud":"-68.6264098"},{"id":20431,"nombre":"SANTA CRUZ","partido":"CASTRO BARROS","municipio":null,"cp":5301,"latitud":"-28.6670418","longitud":"-66.9525070"},{"id":13965,"nombre":"SANTA CRUZ","partido":"FAMATINA","municipio":null,"cp":5361,"latitud":"-28.4907371","longitud":"-67.6899253"},{"id":14140,"nombre":"SANTA CRUZ","partido":"ROSARIO VERA PE\u00d1ALOZA","municipio":null,"cp":5470,"latitud":"-31.3178425","longitud":"-66.4719052"},{"id":27734,"nombre":"SANTA CRUZ","partido":"GENERAL JUAN FACUNDO QUIROGA","municipio":null,"cp":5471,"latitud":null,"longitud":null},{"id":21862,"nombre":"SANTA ELENA","partido":"CORONEL FELIPE VARELA","municipio":null,"cp":5361,"latitud":null,"longitud":null},{"id":13925,"nombre":"SANTA FLORENTINA","partido":"CHILECITO","municipio":null,"cp":5360,"latitud":"-29.1330616","longitud":"-67.5576082"},{"id":27618,"nombre":"SANTA LUCIA","partido":"CHAMICAL","municipio":null,"cp":5380,"latitud":"-30.4753110","longitud":"-66.3392800"},{"id":13970,"nombre":"SANTA RITA LA ZANJA","partido":"CHAMICAL","municipio":null,"cp":5276,"latitud":null,"longitud":null},{"id":20358,"nombre":"SANTA ROSA","partido":"CAPITAL","municipio":null,"cp":5300,"latitud":null,"longitud":null},{"id":13888,"nombre":"SANTA TERESA","partido":"CAPITAL","municipio":null,"cp":5301,"latitud":null,"longitud":null},{"id":13900,"nombre":"SANTA VERA CRUZ","partido":"CASTRO BARROS","municipio":"CASTRO BARROS","cp":5301,"latitud":"-28.6835042","longitud":"-66.9654940"},{"id":20359,"nombre":"SANTO DOMINGO","partido":"CAPITAL","municipio":null,"cp":5300,"latitud":"-29.2907867","longitud":"-66.2840805"},{"id":13966,"nombre":"SANTO DOMINGO","partido":"FAMATINA","municipio":null,"cp":5361,"latitud":"-28.5600668","longitud":"-67.6855704"},{"id":14093,"nombre":"SANTO DOMINGO","partido":"GENERAL SAN MARTIN","municipio":null,"cp":5473,"latitud":null,"longitud":null},{"id":20671,"nombre":"SANTO DOMINGO FAMATINA","partido":"FAMATINA","municipio":null,"cp":5361,"latitud":null,"longitud":null},{"id":14158,"nombre":"SCHAQUI","partido":"SAN BLAS DE LOS SAUCES","municipio":null,"cp":5329,"latitud":"-28.4721394","longitud":"-67.1322937"},{"id":20224,"nombre":"SE\u00d1OR DE LA PE\u00d1A","partido":"ARAUCO","municipio":null,"cp":5310,"latitud":null,"longitud":null},{"id":14094,"nombre":"SIEMPRE VERDE","partido":"GENERAL SAN MARTIN","municipio":null,"cp":5473,"latitud":"-31.6610475","longitud":"-66.2030090"},{"id":20363,"nombre":"SIERRA BRAVA","partido":"CAPITAL","municipio":null,"cp":5301,"latitud":"-29.7260628","longitud":"-65.7696838"},{"id":27729,"nombre":"SIERRA DE LOS QUINTEROS","partido":"GENERAL ANGEL VICENTE PE\u00d1ALOZA","municipio":null,"cp":5385,"latitud":null,"longitud":null},{"id":14004,"nombre":"SIMBOLAR","partido":"GENERAL BELGRANO","municipio":null,"cp":5276,"latitud":null,"longitud":null},{"id":14035,"nombre":"SOLCA","partido":"GENERAL JUAN FACUNDO QUIROGA","municipio":null,"cp":5385,"latitud":"-30.7644982","longitud":"-66.4432572"},{"id":14159,"nombre":"SURIYACO","partido":"SAN BLAS DE LOS SAUCES","municipio":null,"cp":5329,"latitud":"-28.5555816","longitud":"-67.1592837"},{"id":14005,"nombre":"TALA VERDE","partido":"GENERAL BELGRANO","municipio":null,"cp":5383,"latitud":"-30.5235545","longitud":"-66.1619222"},{"id":13889,"nombre":"TALAMUYUNA","partido":"CAPITAL","municipio":null,"cp":5304,"latitud":"-29.7218993","longitud":"-66.8578845"},{"id":14006,"nombre":"TALVA","partido":"GENERAL BELGRANO","municipio":null,"cp":5381,"latitud":"-30.7097863","longitud":"-66.1839733"},{"id":14141,"nombre":"TAMA","partido":"GENERAL ANGEL VICENTE PE\u00d1ALOZA","municipio":"GENERAL ANGEL V PE\u00d1ALOZA","cp":5385,"latitud":"-30.5090009","longitud":"-66.5329563"},{"id":13983,"nombre":"TASQUIN","partido":"GENERAL ANGEL VICENTE PE\u00d1ALOZA","municipio":null,"cp":5385,"latitud":"-30.6293721","longitud":"-66.5593543"},{"id":20821,"nombre":"TERMAS","partido":"INDEPENDENCIA","municipio":null,"cp":5386,"latitud":null,"longitud":null},{"id":13839,"nombre":"TERMAS DE SANTA TERESITA","partido":"ARAUCO","municipio":"ARAUCO","cp":5313,"latitud":"-28.5917750","longitud":"-66.5563886"},{"id":13926,"nombre":"TILIMUQUI","partido":"CHILECITO","municipio":null,"cp":5361,"latitud":"-29.1494439","longitud":"-67.4296646"},{"id":13840,"nombre":"TINOCAN","partido":"ARAUCO","municipio":null,"cp":5313,"latitud":"-28.6289463","longitud":"-66.5932312"},{"id":14075,"nombre":"TORRECITAS","partido":"GENERAL OCAMPO","municipio":null,"cp":5275,"latitud":"-30.9193880","longitud":"-66.1322537"},{"id":14142,"nombre":"TOTORAL","partido":"ROSARIO VERA PE\u00d1ALOZA","municipio":null,"cp":5471,"latitud":"-31.7132988","longitud":"-66.3993454"},{"id":13890,"nombre":"TRAMPA DEL TIGRE","partido":"CAPITAL","municipio":null,"cp":5300,"latitud":"-29.4322666","longitud":"-66.7470750"},{"id":21855,"nombre":"TRES CERROS","partido":"CORONEL FELIPE VARELA","municipio":null,"cp":5361,"latitud":null,"longitud":null},{"id":20755,"nombre":"TRES CRUCES","partido":"GENERAL BELGRANO","municipio":null,"cp":5383,"latitud":null,"longitud":null},{"id":14036,"nombre":"TUANI","partido":"GENERAL JUAN FACUNDO QUIROGA","municipio":null,"cp":5385,"latitud":"-30.9263997","longitud":"-66.5164787"},{"id":13984,"nombre":"TUIZON","partido":"GENERAL ANGEL VICENTE PE\u00d1ALOZA","municipio":null,"cp":5385,"latitud":"-30.4259970","longitud":"-66.5398014"},{"id":14160,"nombre":"TUYUBIL","partido":"SAN BLAS DE LOS SAUCES","municipio":null,"cp":5329,"latitud":"-28.5807624","longitud":"-67.1997798"},{"id":13841,"nombre":"UDPINANGO","partido":"ARAUCO","municipio":"ARAUCO","cp":5311,"latitud":"-28.6775673","longitud":"-66.8142979"},{"id":14095,"nombre":"ULAPES","partido":"GENERAL SAN MARTIN","municipio":"GENERAL SAN MARTIN","cp":5473,"latitud":"-31.5716534","longitud":"-66.2372971"},{"id":14171,"nombre":"VALLE HERMOSO","partido":"VINCHINA","municipio":null,"cp":5359,"latitud":"-28.3824120","longitud":"-68.0000696"},{"id":14143,"nombre":"VALLE HERMOSO","partido":"ROSARIO VERA PE\u00d1ALOZA","municipio":null,"cp":5471,"latitud":"-31.6183668","longitud":"-66.6022357"},{"id":14007,"nombre":"VERDE OLIVO","partido":"GENERAL BELGRANO","municipio":null,"cp":5276,"latitud":null,"longitud":null},{"id":13927,"nombre":"VICHIGASTA","partido":"CHILECITO","municipio":null,"cp":5374,"latitud":"-29.4885974","longitud":"-67.5022852"},{"id":14165,"nombre":"VILLA BUSTOS","partido":"SANAGASTA","municipio":null,"cp":5301,"latitud":null,"longitud":null},{"id":13985,"nombre":"VILLA CASANA","partido":"ROSARIO VERA PE\u00d1ALOZA","municipio":null,"cp":5471,"latitud":"-31.1127895","longitud":"-66.5518091"},{"id":14042,"nombre":"VILLA CASTELLI","partido":"GENERAL LAMADRID","municipio":"GENERAL LAMADRID","cp":5355,"latitud":"-29.0167084","longitud":"-68.2258530"},{"id":14144,"nombre":"VILLA CHEPES","partido":"ROSARIO VERA PE\u00d1ALOZA","municipio":null,"cp":5471,"latitud":"-31.2667198","longitud":"-66.5477371"},{"id":13842,"nombre":"VILLA MAZAN","partido":"ARAUCO","municipio":"ARAUCO","cp":5313,"latitud":"-28.6477833","longitud":"-66.5326843"},{"id":14096,"nombre":"VILLA NIDIA","partido":"GENERAL SAN MARTIN","municipio":null,"cp":5473,"latitud":"-31.8926928","longitud":"-66.0915118"},{"id":20988,"nombre":"VILLA SAN JOSE DE VINCHINA","partido":"VINCHINA","municipio":null,"cp":5359,"latitud":"-28.7797111","longitud":"-68.2060368"},{"id":14166,"nombre":"VILLA SANAGASTA","partido":"SANAGASTA","municipio":"SANAGASTA","cp":5301,"latitud":"-29.2812614","longitud":"-67.0214386"},{"id":14076,"nombre":"VILLA SANTA RITA","partido":"GENERAL OCAMPO","municipio":"GENERAL OCAMPO","cp":5275,"latitud":"-30.9665198","longitud":"-66.2356608"},{"id":13945,"nombre":"VILLA UNION","partido":"CORONEL FELIPE VARELA","municipio":"CORONEL FELIPE VARELA","cp":5350,"latitud":"-29.3227046","longitud":"-68.2230741"},{"id":14172,"nombre":"VINCHINA","partido":"VINCHINA","municipio":"VINCHINA","cp":5357,"latitud":"-28.7797111","longitud":"-68.2060368"}]}